Timestamp,roll,pitch,heading,rollRate,pitchRate,yawRate,groundSpeed,airSpeed,airSpeedSetpoint,climbRate,altitudeRelative,altitudeAMSL,altitudeTuning,altitudeTuningSetpoint,flightDistance,flightTime,distanceToHome,missionItemIndex,headingToNextWP,headingToHome,distanceToGCS,throttlePct,hobbs,battery0.id,battery0.batteryFunction,battery0.batteryType,battery0.voltage,battery0.current,battery0.mahConsumed,battery0.temperature,battery0.percentRemaining,battery0.timeRemaining,battery0.timeRemainingStr,battery0.chargeState,battery0.instantPower,clock.currentTime,clock.currentDate,distanceSensor.rotationNone,distanceSensor.rotationYaw45,distanceSensor.rotationYaw90,distanceSensor.rotationYaw135,distanceSensor.rotationYaw180,distanceSensor.rotationYaw225,distanceSensor.rotationYaw270,distanceSensor.rotationYaw315,distanceSensor.rotationPitch90,distanceSensor.rotationPitch270,distanceSensor.minDistance,distanceSensor.maxDistance,escStatus.index,escStatus.rpm1,escStatus.rpm2,escStatus.rpm3,escStatus.rpm4,escStatus.current1,escStatus.current2,escStatus.current3,escStatus.current4,escStatus.voltage1,escStatus.voltage2,escStatus.voltage3,escStatus.voltage4,estimatorStatus.goodAttitudeEsimate,estimatorStatus.goodHorizVelEstimate,estimatorStatus.goodVertVelEstimate,estimatorStatus.goodHorizPosRelEstimate,estimatorStatus.goodHorizPosAbsEstimate,estimatorStatus.goodVertPosAbsEstimate,estimatorStatus.goodVertPosAGLEstimate,estimatorStatus.goodConstPosModeEstimate,estimatorStatus.goodPredHorizPosRelEstimate,estimatorStatus.goodPredHorizPosAbsEstimate,estimatorStatus.gpsGlitch,estimatorStatus.accelError,estimatorStatus.velRatio,estimatorStatus.horizPosRatio,estimatorStatus.vertPosRatio,estimatorStatus.magRatio,estimatorStatus.haglRatio,estimatorStatus.tasRatio,estimatorStatus.horizPosAccuracy,estimatorStatus.vertPosAccuracy,gps.lat,gps.lon,gps.mgrs,gps.hdop,gps.vdop,gps.courseOverGround,gps.lock,gps.count,gps2.lat,gps2.lon,gps2.mgrs,gps2.hdop,gps2.vdop,gps2.courseOverGround,gps2.lock,gps2.count,localPosition.x,localPosition.y,localPosition.z,localPosition.vx,localPosition.vy,localPosition.vz,localPositionSetpoint.x,localPositionSetpoint.y,localPositionSetpoint.z,localPositionSetpoint.vx,localPositionSetpoint.vy,localPositionSetpoint.vz,setpoint.roll,setpoint.pitch,setpoint.yaw,setpoint.rollRate,setpoint.pitchRate,setpoint.yawRate,temperature.temperature1,temperature.temperature2,temperature.temperature3,terrain.blocksPending,terrain.blocksLoaded,vibration.xAxis,vibration.yAxis,vibration.zAxis,vibration.clipCount1,vibration.clipCount2,vibration.clipCount3,wind.direction,wind.speed,wind.verticalSpeed
2021-06-24 14:46:41.490,-1.1,-1.0,23,0.1,0.4,0.1,0.0,0.0,0.000,-0.0,-0.0,488.1,0.006,0.000,0.0,00:00:00,0.0,1,--.--,--.--,--.--,30,0000:00:00,0,1,1,0.00,-1.00,0,--.--,100,--.--,--:--:--,1,0.00,14:46:41,6/24/21,--.--,--.--,--.--,--.--,--.--,--.--,--.--,--.--,--.--,--.--,--.--,--.--,0,0.000,0.000,0.000,0.000,0.000,0.000,0.000,0.000,0.000,0.000,0.000,0.000,true,true,true,true,true,true,true,false,true,true,false,false,0.01,0.00,0.00,0.00,0.00,0.00,0.42,0.15,47.3977508,8.5456074,32TMT 65711 49466,0.0,0.0,80.2,3,10,--.--,--.--,,--.--,--.--,--.--,0,0,-0.0,-0.0,-0.0,-0.0,-0.0,0.0,0.0,-0.0,0.2,0.0,0.0,0.2,0.4,-1.1,23.4,9.3,-0.8,-0.1,--.--,--.--,--.--,0,0,0.0,0.0,0.0,0,0,0,--.--,--.--,--.--
2021-06-24 14:46:42.468,-0.8,-0.9,23,-0.7,0.2,0.0,0.1,0.0,0.000,0.8,-0.0,488.1,0.257,0.000,0.0,00:00:01,0.0,1,--.--,--.--,--.--,61,0000:00:00,0,1,1,0.00,-1.00,0,--.--,100,--.--,--:--:--,1,0.00,14:46:42,6/24/21,--.--,--.--,--.--,--.--,--.--,--.--,--.--,--.--,--.--,--.--,--.--,--.--,0,0.000,0.000,0.000,0.000,0.000,0.000,0.000,0.000,0.000,0.000,0.000,0.000,true,true,true,true,true,true,true,false,true,true,false,false,0.01,0.00,0.00,0.00,0.00,0.00,0.42,0.15,47.3977508,8.5456074,32TMT 65711 49466,0.0,0.0,300.1,3,10,--.--,--.--,,--.--,--.--,--.--,0,0,-0.0,0.0,-0.3,-0.0,0.0,-0.9,0.0,-0.0,-1.1,0.0,-0.0,-1.0,-1.2,-0.8,23.4,-2.5,0.5,0.1,--.--,--.--,--.--,0,0,0.0,0.0,0.0,0,0,0,--.--,--.--,--.--
2021-06-24 14:46:43.445,-1.0,-0.8,23,-0.2,0.2,0.2,0.0,0.0,0.000,2.1,0.8,488.9,1.715,0.000,0.0,00:00:02,0.1,1,--.--,--.--,--.--,62,0000:00:00,0,1,1,0.00,-1.00,0,--.--,97,--.--,--:--:--,1,0.00,14:46:43,6/24/21,--.--,--.--,--.--,--.--,--.--,--.--,--.--,--.--,--.--,--.--,--.--,--.--,0,0.000,0.000,0.000,0.000,0.000,0.000,0.000,0.000,0.000,0.000,0.000,0.000,true,true,true,true,true,true,true,false,true,true,false,false,0.02,0.00,0.00,0.01,0.00,0.00,0.41,0.14,47.3977506,8.5456080,32TMT 65711 49466,0.0,0.0,115.4,3,10,--.--,--.--,,--.--,--.--,--.--,0,0,-0.0,0.0,-1.8,-0.0,-0.0,-2.1,0.0,-0.0,-2.5,0.0,-0.0,-2.2,-1.3,-0.9,23.4,-1.2,0.3,0.0,--.--,--.--,--.--,0,0,0.0,0.0,0.0,0,0,0,--.--,--.--,--.--
2021-06-24 14:46:44.476,-1.4,-1.2,23,0.2,0.4,0.1,0.0,0.0,0.000,1.7,2.7,490.9,3.628,0.000,0.0,00:00:03,0.1,1,--.--,--.--,--.--,57,0000:00:00,0,1,1,0.00,-1.00,0,--.--,97,--.--,--:--:--,1,0.00,14:46:44,6/24/21,--.--,--.--,--.--,--.--,--.--,--.--,--.--,--.--,--.--,--.--,--.--,--.--,0,0.000,0.000,0.000,0.000,0.000,0.000,0.000,0.000,0.000,0.000,0.000,0.000,true,true,true,true,true,true,true,false,true,true,false,false,0.02,0.00,0.00,0.01,0.00,0.00,0.41,0.14,47.3977503,8.5456082,32TMT 65711 49466,0.0,0.0,183.8,3,10,--.--,--.--,,--.--,--.--,--.--,0,0,-0.1,0.0,-3.7,-0.0,-0.0,-1.7,0.0,-0.0,-3.9,0.1,-0.0,-1.8,-1.4,-1.2,23.4,-0.2,0.3,0.0,--.--,--.--,--.--,0,0,0.0,0.0,0.0,0,0,0,--.--,--.--,--.--
2021-06-24 14:46:45.478,-1.4,-1.2,23,0.5,0.3,0.0,0.0,0.0,0.000,1.5,4.4,492.6,5.250,0.000,0.0,00:00:04,0.1,1,--.--,--.--,--.--,58,0000:00:00,0,1,1,0.00,-1.00,0,--.--,94,--.--,--:--:--,1,0.00,14:46:45,6/24/21,--.--,--.--,--.--,--.--,--.--,--.--,--.--,--.--,--.--,--.--,--.--,--.--,0,0.000,0.000,0.000,0.000,0.000,0.000,0.000,0.000,0.000,0.000,0.000,0.000,true,true,true,true,true,true,true,false,true,true,false,false,0.00,0.00,0.00,0.01,0.00,0.00,0.43,0.18,47.3977503,8.5456081,32TMT 65711 49466,0.0,0.0,11.5,3,10,--.--,--.--,,--.--,--.--,--.--,0,0,-0.1,0.0,-5.3,-0.0,-0.0,-1.5,0.0,-0.0,-5.3,0.1,-0.0,-1.6,-1.3,-1.1,23.4,0.6,0.3,-0.0,--.--,--.--,--.--,0,0,0.0,0.0,0.0,0,0,0,--.--,--.--,--.--
2021-06-24 14:46:46.470,-1.2,-1.2,23,0.9,0.4,0.2,0.0,0.0,0.000,1.4,6.0,494.1,6.397,0.000,0.0,00:00:05,0.1,1,--.--,--.--,--.--,58,0000:00:00,0,1,1,0.00,-1.00,0,--.--,94,--.--,--:--:--,1,0.00,14:46:46,6/24/21,--.--,--.--,--.--,--.--,--.--,--.--,--.--,--.--,--.--,--.--,--.--,--.--,0,0.000,0.000,0.000,0.000,0.000,0.000,0.000,0.000,0.000,0.000,0.000,0.000,true,true,true,true,true,true,true,false,true,true,false,false,0.00,0.00,0.00,0.01,0.00,0.00,0.43,0.18,47.3977506,8.5456078,32TMT 65711 49466,0.0,0.0,350.3,3,10,--.--,--.--,,--.--,--.--,--.--,0,0,-0.0,0.0,-6.8,-0.0,-0.0,-1.4,0.0,-0.0,-6.8,0.0,-0.0,-1.5,-1.1,-1.1,23.4,0.5,0.5,0.1,--.--,--.--,--.--,0,0,0.0,0.0,0.0,0,0,0,--.--,--.--,--.--
2021-06-24 14:46:47.473,-1.1,-1.1,23,0.3,0.3,0.1,0.0,0.0,0.000,1.4,7.5,495.6,7.858,0.000,0.0,00:00:06,0.0,1,--.--,--.--,--.--,58,0000:00:00,0,1,1,0.00,-1.00,0,--.--,91,--.--,--:--:--,1,0.00,14:46:47,6/24/21,--.--,--.--,--.--,--.--,--.--,--.--,--.--,--.--,--.--,--.--,--.--,--.--,0,0.000,0.000,0.000,0.000,0.000,0.000,0.000,0.000,0.000,0.000,0.000,0.000,true,true,true,true,true,true,false,false,true,true,false,false,0.01,0.00,0.00,0.01,0.00,0.00,0.44,0.20,47.3977508,8.5456077,32TMT 65711 49466,0.0,0.0,333.2,3,10,--.--,--.--,,--.--,--.--,--.--,0,0,-0.0,0.0,-8.2,-0.0,-0.0,-1.5,0.0,-0.0,-8.2,0.0,-0.0,-1.5,-1.0,-1.1,23.4,0.3,0.0,0.1,--.--,--.--,--.--,0,0,0.0,0.0,0.0,0,0,0,--.--,--.--,--.--
2021-06-24 14:46:48.479,-1.2,-1.2,23,0.3,0.5,-0.1,0.0,0.0,0.000,0.9,8.9,497.0,9.143,0.000,0.0,00:00:07,0.0,1,--.--,--.--,--.--,54,0000:00:00,0,1,1,0.00,-1.00,0,--.--,91,--.--,--:--:--,1,0.00,14:46:48,6/24/21,--.--,--.--,--.--,--.--,--.--,--.--,--.--,--.--,--.--,--.--,--.--,--.--,0,0.000,0.000,0.000,0.000,0.000,0.000,0.000,0.000,0.000,0.000,0.000,0.000,true,true,true,true,true,true,false,false,true,true,false,false,0.01,0.00,0.00,0.01,0.00,0.00,0.44,0.20,47.3977509,8.5456077,32TMT 65711 49466,0.0,0.0,112.8,3,10,--.--,--.--,,--.--,--.--,--.--,0,0,-0.0,0.0,-9.3,-0.0,-0.0,-0.7,0.0,-0.0,-9.3,0.0,-0.0,-0.7,-1.1,-1.3,23.4,0.6,0.4,0.0,--.--,--.--,--.--,0,0,0.0,0.0,0.0,0,0,0,--.--,--.--,--.--
2021-06-24 14:46:49.472,0.1,-5.6,22,4.9,-33.0,-4.7,0.0,0.0,0.000,0.3,9.6,497.7,9.701,0.000,0.0,00:00:08,0.0,2,21,--.--,--.--,55,0000:00:00,0,1,1,0.00,-1.00,0,--.--,88,--.--,--:--:--,1,0.00,14:46:49,6/24/21,--.--,--.--,--.--,--.--,--.--,--.--,--.--,--.--,--.--,--.--,--.--,--.--,0,0.000,0.000,0.000,0.000,0.000,0.000,0.000,0.000,0.000,0.000,0.000,0.000,true,true,true,true,true,true,false,false,true,true,false,false,0.01,0.00,0.00,0.02,0.00,0.00,0.44,0.18,47.3977509,8.5456077,32TMT 65711 49466,0.0,0.0,42.3,3,10,--.--,--.--,,--.--,--.--,--.--,0,0,0.0,0.0,-9.8,0.0,0.0,-0.3,0.1,0.0,-9.8,0.6,0.3,-0.3,0.6,-12.6,20.8,2.1,-34.4,-3.8,--.--,--.--,--.--,0,0,0.0,0.0,0.0,0,0,0,--.--,--.--,--.--
2021-06-24 14:46:50.476,-1.1,-27.6,20,0.7,-5.7,-0.6,1.7,0.0,0.000,0.0,9.9,498.0,9.895,0.000,0.0,00:00:09,1.0,2,21,--.--,--.--,61,0000:00:00,0,1,1,0.00,-1.00,0,--.--,88,--.--,--:--:--,1,0.00,14:46:50,6/24/21,--.--,--.--,--.--,--.--,--.--,--.--,--.--,--.--,--.--,--.--,--.--,--.--,0,0.000,0.000,0.000,0.000,0.000,0.000,0.000,0.000,0.000,0.000,0.000,0.000,true,true,true,true,true,true,false,false,true,true,false,false,0.01,0.00,0.00,0.02,0.00,0.00,0.44,0.18,47.3977519,8.5456086,32TMT 65711 49466,0.0,0.0,31.4,3,10,--.--,--.--,,--.--,--.--,--.--,0,0,0.9,0.4,-9.9,1.9,0.7,0.0,1.5,0.6,-9.9,3.4,1.2,0.0,-0.9,-29.2,20.7,0.8,-8.4,-0.4,--.--,--.--,--.--,0,0,0.0,0.0,0.0,0,0,0,--.--,--.--,--.--
2021-06-24 14:46:51.470,0.4,-33.5,20,6.5,5.4,-0.3,3.6,0.0,0.000,-0.0,9.9,498.0,9.899,0.000,2.0,00:00:10,4.0,2,21,201,--.--,67,0000:00:00,0,1,1,0.00,-1.00,0,--.--,84,--.--,--:--:--,1,0.00,14:46:51,6/24/21,--.--,--.--,--.--,--.--,--.--,--.--,--.--,--.--,--.--,--.--,--.--,--.--,0,0.000,0.000,0.000,0.000,0.000,0.000,0.000,0.000,0.000,0.000,0.000,0.000,true,true,true,true,true,true,false,false,true,true,false,false,0.03,0.01,0.01,0.01,0.00,0.00,0.43,0.17,47.3977670,8.5456178,32TMT 65712 49468,0.0,0.0,21.1,3,10,--.--,--.--,,--.--,--.--,--.--,0,0,3.7,1.4,-9.9,3.6,1.2,0.0,4.3,1.6,-9.9,5.1,1.9,-0.0,1.4,-33.3,20.8,6.4,0.5,0.3,--.--,--.--,--.--,0,0,0.0,0.0,0.0,0,0,0,--.--,--.--,--.--
2021-06-24 14:46:52.482,0.1,-30.5,20,0.1,0.0,-0.1,4.1,0.0,0.000,0.0,9.9,498.0,9.867,0.000,6.1,00:00:11,8.0,2,21,201,--.--,67,0000:00:00,0,1,1,0.00,-1.00,0,--.--,84,--.--,--:--:--,1,0.00,14:46:52,6/24/21,--.--,--.--,--.--,--.--,--.--,--.--,--.--,--.--,--.--,--.--,--.--,--.--,0,0.000,0.000,0.000,0.000,0.000,0.000,0.000,0.000,0.000,0.000,0.000,0.000,true,true,true,true,true,true,false,false,true,true,false,false,0.03,0.01,0.01,0.01,0.00,0.00,0.43,0.17,47.3977983,8.5456349,32TMT 65713 49471,0.0,0.0,21.1,3,10,--.--,--.--,,--.--,--.--,--.--,0,0,7.4,2.8,-9.9,3.8,1.4,-0.0,7.9,3.0,-9.9,5.0,1.9,-0.1,0.2,-31.1,20.8,0.3,-3.1,-0.1,--.--,--.--,--.--,0,0,0.0,0.0,0.0,0,0,0,--.--,--.--,--.--
2021-06-24 14:46:53.496,0.1,-30.9,20,0.1,0.3,-0.1,4.2,0.0,0.000,0.1,9.8,498.0,9.828,0.000,10.2,00:00:12,12.0,2,21,201,--.--,68,0000:00:00,0,1,1,0.00,-1.00,0,--.--,81,--.--,--:--:--,1,0.00,14:46:53,6/24/21,--.--,--.--,--.--,--.--,--.--,--.--,--.--,--.--,--.--,--.--,--.--,--.--,0,0.000,0.000,0.000,0.000,0.000,0.000,0.000,0.000,0.000,0.000,0.000,0.000,true,true,true,true,true,true,false,false,true,true,false,false,0.05,0.01,0.01,0.01,0.00,0.00,0.42,0.16,47.3978333,8.5456546,32TMT 65715 49475,0.0,0.0,21.1,3,10,--.--,--.--,,--.--,--.--,--.--,0,0,11.2,4.3,-9.8,3.9,1.4,-0.1,11.7,4.4,-9.9,5.0,1.9,-0.1,0.1,-31.1,20.8,0.2,-1.0,-0.0,--.--,--.--,--.--,0,0,0.0,0.0,0.0,0,0,0,--.--,--.--,--.--
2021-06-24 14:46:54.484,0.2,-31.1,20,0.1,-0.1,0.1,4.2,0.0,0.000,0.2,9.8,497.9,9.793,0.000,16.3,00:00:13,16.2,2,21,201,--.--,68,0000:00:00,0,1,1,0.00,-1.00,0,--.--,81,--.--,--:--:--,1,0.00,14:46:54,6/24/21,--.--,--.--,--.--,--.--,--.--,--.--,--.--,--.--,--.--,--.--,--.--,--.--,0,0.000,0.000,0.000,0.000,0.000,0.000,0.000,0.000,0.000,0.000,0.000,0.000,true,true,true,true,true,true,false,false,true,true,false,false,0.05,0.01,0.01,0.01,0.00,0.00,0.42,0.16,47.3978690,8.5456744,32TMT 65716 49479,0.0,0.0,20.4,3,10,--.--,--.--,,--.--,--.--,--.--,0,0,15.1,5.8,-9.8,4.0,1.5,-0.2,15.5,5.9,-10.0,5.0,1.9,-0.2,0.2,-31.2,20.8,0.0,-0.4,0.0,--.--,--.--,--.--,0,0,0.0,0.0,0.0,0,0,0,--.--,--.--,--.--
2021-06-24 14:46:55.513,0.4,-29.5,20,1.9,16.6,-0.1,4.3,0.0,0.000,0.2,9.8,497.9,9.778,0.000,20.4,00:00:14,20.4,2,21,201,--.--,67,0000:00:00,0,1,1,0.00,-1.00,0,--.--,78,--.--,--:--:--,1,0.00,14:46:55,6/24/21,--.--,--.--,--.--,--.--,--.--,--.--,--.--,--.--,--.--,--.--,--.--,--.--,0,0.000,0.000,0.000,0.000,0.000,0.000,0.000,0.000,0.000,0.000,0.000,0.000,true,true,true,true,true,true,false,false,true,true,false,false,0.04,0.00,0.00,0.01,0.00,0.00,0.44,0.17,47.3979056,8.5456946,32TMT 65718 49483,0.0,0.0,20.5,3,10,--.--,--.--,,--.--,--.--,--.--,0,0,19.1,7.2,-9.8,4.0,1.5,-0.2,19.4,7.4,-10.0,4.6,1.8,-0.2,0.7,-26.2,21.0,2.0,17.5,0.2,--.--,--.--,--.--,0,0,0.0,0.0,0.0,0,0,0,--.--,--.--,--.--
2021-06-24 14:46:56.465,-0.9,-17.0,20,-2.0,10.6,-0.9,3.1,0.0,0.000,0.2,9.8,497.9,9.780,0.000,22.4,00:00:15,24.1,2,21,201,--.--,62,0000:00:00,0,1,1,0.00,-1.00,0,--.--,78,--.--,--:--:--,1,0.00,14:46:56,6/24/21,--.--,--.--,--.--,--.--,--.--,--.--,--.--,--.--,--.--,--.--,--.--,--.--,0,0.000,0.000,0.000,0.000,0.000,0.000,0.000,0.000,0.000,0.000,0.000,0.000,true,true,true,true,true,true,false,false,true,true,false,false,0.04,0.00,0.00,0.01,0.00,0.00,0.44,0.17,47.3979411,8.5457146,32TMT 65719 49487,0.0,0.0,21.5,3,10,--.--,--.--,,--.--,--.--,--.--,0,0,22.5,8.6,-9.8,2.8,1.1,-0.2,22.6,8.6,-10.0,2.6,1.0,-0.2,-1.1,-14.3,20.2,-1.6,12.8,-1.2,--.--,--.--,--.--,0,0,0.0,0.0,0.0,0,0,0,--.--,--.--,--.--
2021-06-24 14:46:57.466,-16.6,-13.0,6,-29.0,-2.2,-39.8,1.7,0.0,0.000,0.2,9.8,497.9,9.834,0.000,24.4,00:00:16,26.3,3,294,201,--.--,60,0000:00:00,0,1,1,0.00,-1.00,0,--.--,74,--.--,--:--:--,1,0.00,14:46:57,6/24/21,--.--,--.--,--.--,--.--,--.--,--.--,--.--,--.--,--.--,--.--,--.--,--.--,0,0.000,0.000,0.000,0.000,0.000,0.000,0.000,0.000,0.000,0.000,0.000,0.000,true,true,true,true,true,true,false,false,true,true,false,false,0.02,0.00,0.00,0.01,0.00,0.00,0.43,0.16,47.3979621,8.5457269,32TMT 65720 49489,0.0,0.0,21.4,3,10,--.--,--.--,,--.--,--.--,--.--,0,0,24.6,9.3,-9.9,1.7,0.0,-0.2,24.5,8.9,-10.0,1.6,-1.4,-0.2,-16.0,-17.7,348.1,-23.3,4.0,-47.6,--.--,--.--,--.--,0,0,0.0,0.0,0.0,0,0,0,--.--,--.--,--.--
2021-06-24 14:46:58.479,-11.8,-21.7,322,-5.1,1.8,-43.3,2.4,0.0,0.000,0.1,9.9,498.0,9.886,0.000,26.4,00:00:17,27.6,3,294,198,--.--,62,0000:00:00,0,1,1,0.00,-1.00,0,--.--,74,--.--,--:--:--,1,0.00,14:46:58,6/24/21,--.--,--.--,--.--,--.--,--.--,--.--,--.--,--.--,--.--,--.--,--.--,--.--,0,0.000,0.000,0.000,0.000,0.000,0.000,0.000,0.000,0.000,0.000,0.000,0.000,true,true,true,true,true,true,false,false,true,true,false,false,0.02,0.00,0.00,0.01,0.00,0.00,0.43,0.16,47.3979791,8.5457285,32TMT 65721 49491,0.0,0.0,330.3,3,10,--.--,--.--,,--.--,--.--,--.--,0,0,26.3,8.3,-9.9,1.5,-1.9,-0.1,25.5,7.8,-10.0,1.2,-3.3,-0.1,-5.8,-24.1,304.9,-6.2,1.6,-45.9,--.--,--.--,--.--,0,0,0.0,0.0,0.0,0,0,0,--.--,--.--,--.--
2021-06-24 14:46:59.452,-2.4,-30.6,288,-0.8,0.2,-9.4,3.5,0.0,0.000,0.1,9.9,498.0,9.908,0.000,30.5,00:00:18,28.2,3,294,192,--.--,66,0000:00:00,0,1,1,0.00,-1.00,0,--.--,71,--.--,--:--:--,1,0.00,14:46:59,6/24/21,--.--,--.--,--.--,--.--,--.--,--.--,--.--,--.--,--.--,--.--,--.--,--.--,0,0.000,0.000,0.000,0.000,0.000,0.000,0.000,0.000,0.000,0.000,0.000,0.000,true,true,true,true,true,true,false,false,true,true,false,false,0.03,0.00,0.00,0.01,0.00,0.00,0.43,0.15,47.3979930,8.5457042,32TMT 65719 49493,0.0,0.0,297.0,3,10,--.--,--.--,,--.--,--.--,--.--,0,0,27.6,5.8,-9.9,1.3,-3.2,-0.1,26.7,5.3,-10.0,1.0,-5.0,-0.1,-1.7,-31.1,287.6,0.4,0.2,-3.5,--.--,--.--,--.--,0,0,0.0,0.0,0.0,0,0,0,--.--,--.--,--.--
2021-06-24 14:47:00.478,0.7,-28.4,286,1.7,-0.6,0.4,3.9,0.0,0.000,0.1,9.9,498.0,9.896,0.000,34.5,00:00:19,28.8,3,294,184,--.--,66,0000:00:00,0,1,1,0.00,-1.00,0,--.--,71,--.--,--:--:--,1,0.00,14:47:00,6/24/21,--.--,--.--,--.--,--.--,--.--,--.--,--.--,--.--,--.--,--.--,--.--,--.--,0,0.000,0.000,0.000,0.000,0.000,0.000,0.000,0.000,0.000,0.000,0.000,0.000,true,true,true,true,true,true,false,false,true,true,false,false,0.03,0.00,0.00,0.01,0.00,0.00,0.43,0.15,47.3980033,8.5456607,32TMT 65715 49494,0.0,0.0,285.4,3,10,--.--,--.--,,--.--,--.--,--.--,0,0,28.7,2.2,-9.9,1.3,-3.7,-0.1,28.0,1.8,-10.0,1.1,-5.0,-0.1,0.4,-28.6,287.8,2.1,0.5,3.7,--.--,--.--,--.--,0,0,0.0,0.0,0.0,0,0,0,--.--,--.--,--.--
2021-06-24 14:47:01.491,1.5,-28.8,287,1.1,-0.8,0.6,4.0,0.0,0.000,0.1,9.9,498.0,9.892,0.000,38.5,00:00:20,29.8,3,294,177,--.--,66,0000:00:00,0,1,1,0.00,-1.00,0,--.--,68,--.--,--:--:--,1,0.00,14:47:01,6/24/21,--.--,--.--,--.--,--.--,--.--,--.--,--.--,--.--,--.--,--.--,--.--,--.--,0,0.000,0.000,0.000,0.000,0.000,0.000,0.000,0.000,0.000,0.000,0.000,0.000,true,true,true,true,true,true,false,false,true,true,false,false,0.10,0.02,0.02,0.01,0.00,0.00,0.43,0.15,47.3980125,8.5456109,32TMT 65712 49495,0.0,0.0,285.9,3,10,--.--,--.--,,--.--,--.--,--.--,0,0,29.8,-1.5,-9.9,1.4,-3.8,-0.1,29.3,-1.8,-10.0,1.3,-4.9,-0.1,1.3,-28.8,288.2,1.7,-0.6,2.6,--.--,--.--,--.--,0,0,0.0,0.0,0.0,0,0,0,--.--,--.--,--.--
2021-06-24 14:47:02.479,1.9,-29.4,287,0.3,-0.9,0.4,4.1,0.0,0.000,0.1,9.9,498.0,9.889,0.000,40.6,00:00:21,31.3,3,294,171,--.--,67,0000:00:00,0,1,1,0.00,-1.00,0,--.--,68,--.--,--:--:--,1,0.00,14:47:02,6/24/21,--.--,--.--,--.--,--.--,--.--,--.--,--.--,--.--,--.--,--.--,--.--,--.--,0,0.000,0.000,0.000,0.000,0.000,0.000,0.000,0.000,0.000,0.000,0.000,0.000,true,true,true,true,true,true,false,false,true,true,false,false,0.10,0.02,0.02,0.01,0.00,0.00,0.43,0.15,47.3980230,8.5455606,32TMT 65708 49496,0.0,0.0,288.1,3,10,--.--,--.--,,--.--,--.--,--.--,0,0,30.9,-5.1,-9.9,1.5,-3.8,-0.1,30.6,-5.3,-10.0,1.5,-4.9,-0.1,1.9,-29.5,288.3,1.0,-0.8,1.4,--.--,--.--,--.--,0,0,0.0,0.0,0.0,0,0,0,--.--,--.--,--.--
2021-06-24 14:47:03.469,2.3,-30.0,287,-0.1,-0.4,-0.2,4.2,0.0,0.000,0.1,9.9,498.0,9.878,0.000,44.7,00:00:22,33.4,3,294,165,--.--,67,0000:00:00,0,1,1,0.00,-1.00,0,--.--,64,--.--,--:--:--,1,0.00,14:47:03,6/24/21,--.--,--.--,--.--,--.--,--.--,--.--,--.--,--.--,--.--,--.--,--.--,--.--,0,0.000,0.000,0.000,0.000,0.000,0.000,0.000,0.000,0.000,0.000,0.000,0.000,true,true,true,true,true,true,false,false,true,true,false,false,0.06,0.02,0.02,0.00,0.00,0.00,0.42,0.14,47.3980347,8.5455093,32TMT 65704 49497,0.0,0.0,289.5,3,10,--.--,--.--,,--.--,--.--,--.--,0,0,32.2,-8.9,-9.9,1.5,-3.9,-0.1,32.0,-9.2,-10.0,1.5,-4.9,-0.1,2.3,-30.1,288.1,0.2,-0.5,0.3,--.--,--.--,--.--,0,0,0.0,0.0,0.0,0,0,0,--.--,--.--,--.--
2021-06-24 14:47:04.469,2.3,-21.7,287,-1.8,9.6,-2.1,4.0,0.0,0.000,0.1,9.8,498.0,9.861,0.000,48.8,00:00:23,35.9,3,294,159,--.--,65,0000:00:00,0,1,1,0.00,-1.00,0,--.--,64,--.--,--:--:--,1,0.00,14:47:04,6/24/21,--.--,--.--,--.--,--.--,--.--,--.--,--.--,--.--,--.--,--.--,--.--,--.--,0,0.000,0.000,0.000,0.000,0.000,0.000,0.000,0.000,0.000,0.000,0.000,0.000,true,true,true,true,true,true,false,false,true,true,false,false,0.06,0.02,0.02,0.00,0.00,0.00,0.42,0.14,47.3980475,8.5454566,32TMT 65700 49499,0.0,0.0,289.9,3,10,--.--,--.--,,--.--,--.--,--.--,0,0,33.6,-12.6,-9.9,1.4,-3.5,-0.1,33.3,-12.8,-10.0,1.2,-3.8,-0.2,2.2,-20.0,286.7,-1.9,9.1,-2.0,--.--,--.--,--.--,0,0,0.0,0.0,0.0,0,0,0,--.--,--.--,--.--
2021-06-24 14:47:05.490,0.9,-11.4,283,-2.4,11.2,-6.6,2.6,0.0,0.000,0.1,9.8,498.0,9.851,0.000,52.8,00:00:24,37.9,3,294,156,--.--,61,0000:00:00,0,1,1,0.00,-1.00,0,--.--,61,--.--,--:--:--,1,0.00,14:47:05,6/24/21,--.--,--.--,--.--,--.--,--.--,--.--,--.--,--.--,--.--,--.--,--.--,--.--,0,0.000,0.000,0.000,0.000,0.000,0.000,0.000,0.000,0.000,0.000,0.000,0.000,true,true,true,true,true,true,false,false,true,true,false,false,0.05,0.02,0.02,0.00,0.00,0.00,0.44,0.14,47.3980588,8.5454128,32TMT 65697 49500,0.0,0.0,290.6,3,10,--.--,--.--,,--.--,--.--,--.--,0,0,34.6,-15.4,-9.9,0.9,-2.2,-0.2,34.3,-15.5,-10.0,0.4,-1.9,-0.2,0.6,-9.0,281.9,-3.0,13.4,-4.4,--.--,--.--,--.--,0,0,0.0,0.0,0.0,0,0,0,--.--,--.--,--.--
2021-06-24 14:47:06.467,-11.9,-13.4,273,-36.9,-30.2,-37.0,1.3,0.0,0.000,-0.0,9.8,498.0,9.825,0.000,54.9,00:00:25,39.1,4,229,154,--.--,56,0000:00:00,0,1,1,0.00,-1.00,0,--.--,61,--.--,--:--:--,1,0.00,14:47:06,6/24/21,--.--,--.--,--.--,--.--,--.--,--.--,--.--,--.--,--.--,--.--,--.--,--.--,0,0.000,0.000,0.000,0.000,0.000,0.000,0.000,0.000,0.000,0.000,0.000,0.000,true,true,true,true,true,true,false,false,true,true,false,false,0.05,0.02,0.02,0.00,0.00,0.00,0.44,0.14,47.3980656,8.5453861,32TMT 65695 49501,0.0,0.0,288.0,3,10,--.--,--.--,,--.--,--.--,--.--,0,0,35.2,-17.0,-9.8,0.2,-1.3,0.1,34.5,-16.8,-9.9,-1.3,-1.5,0.3,-10.9,-19.8,256.0,-24.8,-16.3,-45.9,--.--,--.--,--.--,0,0,0.0,0.0,0.0,0,0,0,--.--,--.--,--.--
2021-06-24 14:47:07.480,-4.1,-25.7,233,1.1,0.1,-22.4,2.2,0.0,0.000,-0.4,9.4,497.5,9.420,0.000,56.9,00:00:26,39.1,4,229,152,--.--,61,0000:00:00,0,1,1,0.00,-1.00,0,--.--,58,--.--,--:--:--,1,0.00,14:47:07,6/24/21,--.--,--.--,--.--,--.--,--.--,--.--,--.--,--.--,--.--,--.--,--.--,--.--,0,0.000,0.000,0.000,0.000,0.000,0.000,0.000,0.000,0.000,0.000,0.000,0.000,true,true,true,true,true,true,false,false,true,true,false,false,0.04,0.01,0.01,0.02,0.00,0.00,0.43,0.14,47.3980644,8.5453704,32TMT 65694 49501,0.0,0.0,241.7,3,10,--.--,--.--,,--.--,--.--,--.--,0,0,34.4,-18.6,-9.3,-1.5,-1.9,0.5,33.6,-18.1,-9.6,-3.0,-2.3,0.7,-1.5,-27.3,227.4,0.1,-0.1,-15.0,--.--,--.--,--.--,0,0,0.0,0.0,0.0,0,0,0,--.--,--.--,--.--
2021-06-24 14:47:08.467,-0.1,-23.7,226,0.1,-0.2,-0.4,2.9,0.0,0.000,-0.6,8.7,496.8,8.695,0.000,58.9,00:00:27,38.6,4,229,148,--.--,63,0000:00:00,0,1,1,0.00,-1.00,0,--.--,58,--.--,--:--:--,1,0.00,14:47:08,6/24/21,--.--,--.--,--.--,--.--,--.--,--.--,--.--,--.--,--.--,--.--,--.--,--.--,0,0.000,0.000,0.000,0.000,0.000,0.000,0.000,0.000,0.000,0.000,0.000,0.000,true,true,true,true,true,true,false,false,true,true,false,false,0.04,0.01,0.01,0.02,0.00,0.00,0.43,0.14,47.3980502,8.5453436,32TMT 65692 49499,0.0,0.0,228.5,3,10,--.--,--.--,,--.--,--.--,--.--,0,0,32.5,-20.8,-8.6,-1.9,-2.1,0.6,31.8,-20.2,-8.8,-3.1,-2.4,0.8,-0.4,-24.4,227.3,0.2,-2.0,2.4,--.--,--.--,--.--,0,0,0.0,0.0,0.0,0,0,0,--.--,--.--,--.--
2021-06-24 14:47:09.480,-0.1,-24.2,226,0.2,0.8,0.3,2.9,0.0,0.000,-0.7,7.9,496.1,7.922,0.000,61.0,00:00:28,38.2,4,229,143,--.--,63,0000:00:00,0,1,1,0.00,-1.00,0,--.--,54,--.--,--:--:--,1,0.00,14:47:09,6/24/21,--.--,--.--,--.--,--.--,--.--,--.--,--.--,--.--,--.--,--.--,--.--,--.--,0,0.000,0.000,0.000,0.000,0.000,0.000,0.000,0.000,0.000,0.000,0.000,0.000,true,true,true,true,true,true,false,false,true,true,false,false,0.02,0.02,0.02,0.01,0.00,0.00,0.42,0.14,47.3980320,8.5453142,32TMT 65689 49497,0.0,0.0,226.8,3,10,--.--,--.--,,--.--,--.--,--.--,0,0,30.5,-22.9,-7.8,-2.0,-2.2,0.7,29.8,-22.4,-8.0,-3.0,-2.4,0.8,-0.4,-24.0,227.3,0.2,1.4,2.0,--.--,--.--,--.--,0,0,0.0,0.0,0.0,0,0,0,--.--,--.--,--.--
2021-06-24 14:47:10.488,-0.1,-24.4,226,-0.3,-0.4,0.4,3.0,0.0,0.000,-0.7,7.1,495.3,7.138,0.000,65.0,00:00:29,38.0,4,229,139,--.--,63,0000:00:00,0,1,1,0.00,-1.00,0,--.--,54,--.--,--:--:--,1,0.00,14:47:10,6/24/21,--.--,--.--,--.--,--.--,--.--,--.--,--.--,--.--,--.--,--.--,--.--,--.--,0,0.000,0.000,0.000,0.000,0.000,0.000,0.000,0.000,0.000,0.000,0.000,0.000,true,true,true,true,true,true,false,false,true,true,false,false,0.02,0.02,0.02,0.01,0.00,0.00,0.42,0.14,47.3980134,8.5452844,32TMT 65687 49495,0.0,0.0,227.6,3,10,--.--,--.--,,--.--,--.--,--.--,0,0,28.5,-25.1,-7.1,-2.0,-2.2,0.7,27.9,-24.6,-7.3,-3.0,-2.5,0.8,-0.4,-24.4,227.3,-0.4,-1.8,1.3,--.--,--.--,--.--,0,0,0.0,0.0,0.0,0,0,0,--.--,--.--,--.--
2021-06-24 14:47:11.443,-0.2,-24.9,226,0.3,0.2,0.3,3.1,0.0,0.000,-0.7,6.3,494.5,6.342,0.000,67.1,00:00:30,38.0,4,229,134,--.--,63,0000:00:00,0,1,1,0.00,-1.00,0,--.--,51,--.--,--:--:--,1,0.00,14:47:11,6/24/21,--.--,--.--,--.--,--.--,--.--,--.--,--.--,--.--,--.--,--.--,--.--,--.--,0,0.000,0.000,0.000,0.000,0.000,0.000,0.000,0.000,0.000,0.000,0.000,0.000,true,true,true,true,true,true,false,false,true,true,false,false,0.01,0.01,0.01,0.01,0.00,0.00,0.42,0.14,47.3979945,8.5452540,32TMT 65685 49493,0.0,0.0,227.8,3,10,--.--,--.--,,--.--,--.--,--.--,0,0,26.5,-27.3,-6.3,-2.1,-2.3,0.7,25.9,-26.9,-6.5,-2.9,-2.5,0.8,-0.4,-25.1,227.3,-0.1,0.7,0.7,--.--,--.--,--.--,0,0,0.0,0.0,0.0,0,0,0,--.--,--.--,--.--
2021-06-24 14:47:12.489,-0.1,-25.3,227,0.2,-0.7,0.2,3.1,0.0,0.000,-0.8,5.5,493.7,5.530,0.000,71.2,00:00:31,38.4,4,229,129,--.--,63,0000:00:00,0,1,1,0.00,-1.00,0,--.--,51,--.--,--:--:--,1,0.00,14:47:12,6/24/21,--.--,--.--,--.--,--.--,--.--,--.--,--.--,--.--,--.--,--.--,--.--,--.--,0,0.000,0.000,0.000,0.000,0.000,0.000,0.000,0.000,0.000,0.000,0.000,0.000,true,true,true,true,true,true,false,false,true,true,false,false,0.01,0.01,0.01,0.01,0.00,0.00,0.42,0.14,47.3979752,8.5452230,32TMT 65682 49491,0.0,0.0,227.4,3,10,--.--,--.--,,--.--,--.--,--.--,0,0,24.3,-29.7,-5.5,-2.1,-2.3,0.8,23.8,-29.3,-5.6,-2.9,-2.6,0.8,-0.1,-25.3,227.2,0.3,-1.9,0.5,--.--,--.--,--.--,0,0,0.0,0.0,0.0,0,0,0,--.--,--.--,--.--
2021-06-24 14:47:13.487,-0.0,-25.7,227,0.1,-0.6,0.0,3.2,0.0,0.000,-0.8,4.7,492.8,4.711,0.000,73.2,00:00:32,38.9,4,229,125,--.--,63,0000:00:00,0,1,1,0.00,-1.00,0,--.--,51,--.--,--:--:--,1,0.00,14:47:13,6/24/21,--.--,--.--,--.--,--.--,--.--,--.--,--.--,--.--,--.--,--.--,--.--,--.--,0,0.000,0.000,0.000,0.000,0.000,0.000,0.000,0.000,0.000,0.000,0.000,0.000,true,true,true,true,true,true,false,false,true,true,false,false,0.02,0.01,0.01,0.00,0.00,0.00,0.41,0.14,47.3979557,8.5451911,32TMT 65680 49489,0.0,0.0,227.8,3,10,--.--,--.--,,--.--,--.--,--.--,0,0,22.3,-31.9,-4.7,-2.1,-2.4,0.8,21.8,-31.7,-4.8,-2.9,-2.6,0.9,-0.0,-26.0,227.2,0.1,-0.3,0.2,--.--,--.--,--.--,0,0,0.0,0.0,0.0,0,0,0,--.--,--.--,--.--
2021-06-24 14:47:14.452,0.0,-26.1,227,0.3,-0.7,-0.3,3.2,0.0,0.000,-0.8,3.8,492.0,3.867,0.000,77.2,00:00:33,39.8,4,229,120,--.--,64,0000:00:00,0,1,1,0.00,-1.00,0,--.--,51,--.--,--:--:--,1,0.00,14:47:14,6/24/21,--.--,--.--,--.--,--.--,--.--,--.--,--.--,--.--,--.--,--.--,--.--,--.--,0,0.000,0.000,0.000,0.000,0.000,0.000,0.000,0.000,0.000,0.000,0.000,0.000,true,true,true,true,true,true,false,false,true,true,false,false,0.02,0.01,0.01,0.00,0.00,0.00,0.41,0.14,47.3979358,8.5451587,32TMT 65678 49487,0.0,0.0,227.8,3,10,--.--,--.--,,--.--,--.--,--.--,0,0,20.2,-34.3,-3.8,-2.1,-2.4,0.8,19.7,-34.0,-4.0,-2.8,-2.6,0.9,0.1,-25.8,227.0,0.4,0.1,-0.0,--.--,--.--,--.--,0,0,0.0,0.0,0.0,0,0,0,--.--,--.--,--.--
2021-06-24 14:47:15.499,0.2,-26.4,226,0.2,-0.9,-0.3,3.3,0.0,0.000,-0.8,3.0,491.1,3.006,0.000,81.3,00:00:34,40.8,4,229,116,--.--,64,0000:00:00,0,1,1,0.00,-1.00,0,--.--,51,--.--,--:--:--,1,0.00,14:47:15,6/24/21,--.--,--.--,--.--,--.--,--.--,--.--,--.--,--.--,--.--,--.--,--.--,--.--,0,0.000,0.000,0.000,0.000,0.000,0.000,0.000,0.000,0.000,0.000,0.000,0.000,true,true,true,true,true,true,false,false,true,true,false,false,0.01,0.01,0.01,0.00,0.00,0.00,0.43,0.14,47.3979157,8.5451255,32TMT 65675 49484,0.0,0.0,228.0,3,10,--.--,--.--,,--.--,--.--,--.--,0,0,18.0,-36.7,-3.0,-2.2,-2.4,0.8,17.6,-36.5,-3.1,-2.8,-2.7,0.9,0.2,-26.3,226.7,0.0,-0.6,-0.2,--.--,--.--,--.--,0,0,0.0,0.0,0.0,0,0,0,--.--,--.--,--.--
2021-06-24 14:47:16.495,0.5,-26.6,226,0.1,-0.2,-0.4,3.3,0.0,0.000,-0.9,2.1,490.3,2.137,0.000,83.4,00:00:35,42.2,4,229,112,--.--,64,0000:00:00,0,1,1,0.00,-1.00,0,--.--,51,--.--,--:--:--,1,0.00,14:47:16,6/24/21,--.--,--.--,--.--,--.--,--.--,--.--,--.--,--.--,--.--,--.--,--.--,--.--,0,0.000,0.000,0.000,0.000,0.000,0.000,0.000,0.000,0.000,0.000,0.000,0.000,true,true,true,true,true,true,false,false,true,true,false,false,0.01,0.01,0.01,0.00,0.00,0.00,0.43,0.14,47.3978953,8.5450917,32TMT 65672 49482,0.0,0.0,228.4,3,10,--.--,--.--,,--.--,--.--,--.--,0,0,15.8,-39.1,-2.1,-2.2,-2.5,0.9,15.5,-38.9,-2.3,-2.8,-2.7,0.9,0.6,-26.4,226.1,-0.0,0.2,-0.5,--.--,--.--,--.--,0,0,0.0,0.0,0.0,0,0,0,--.--,--.--,--.--
2021-06-24 14:47:17.458,1.0,-26.8,225,0.0,-0.1,-1.4,3.3,0.0,0.000,-0.9,1.2,489.4,1.257,0.000,87.4,00:00:36,43.8,4,229,108,--.--,64,0000:00:00,0,1,1,0.00,-1.00,0,--.--,51,--.--,--:--:--,1,0.00,14:47:17,6/24/21,--.--,--.--,--.--,--.--,--.--,--.--,--.--,--.--,--.--,--.--,--.--,--.--,0,0.000,0.000,0.000,0.000,0.000,0.000,0.000,0.000,0.000,0.000,0.000,0.000,true,true,true,true,true,true,false,false,true,true,false,false,0.01,0.01,0.01,0.00,0.00,0.00,0.43,0.14,47.3978788,8.5450640,32TMT 65670 49480,0.0,0.0,228.7,3,10,--.--,--.--,,--.--,--.--,--.--,0,0,13.6,-41.6,-1.3,-2.2,-2.5,0.9,13.3,-41.4,-1.4,-2.8,-2.7,0.9,1.3,-27.0,224.7,0.2,0.1,-1.7,--.--,--.--,--.--,0,0,0.0,0.0,0.0,0,0,0,--.--,--.--,--.--
2021-06-24 14:47:18.468,1.4,-13.3,222,-1.2,12.5,-6.0,2.5,0.0,0.000,-0.5,0.5,488.6,0.486,0.000,89.4,00:00:37,45.4,4,229,105,--.--,62,0000:00:00,0,1,1,0.00,-1.00,0,--.--,51,--.--,--:--:--,1,0.00,14:47:18,6/24/21,--.--,--.--,--.--,--.--,--.--,--.--,--.--,--.--,--.--,--.--,--.--,--.--,0,0.000,0.000,0.000,0.000,0.000,0.000,0.000,0.000,0.000,0.000,0.000,0.000,true,true,true,true,true,true,false,false,true,true,false,false,0.01,0.01,0.01,0.00,0.00,0.00,0.43,0.14,47.3978587,8.5450304,32TMT 65668 49478,0.0,0.0,227.9,3,10,--.--,--.--,,--.--,--.--,--.--,0,0,11.5,-43.9,-0.5,-1.7,-1.9,0.5,11.4,-43.6,-0.6,-1.6,-1.4,0.5,1.8,-11.0,219.2,-1.0,13.0,-7.8,--.--,--.--,--.--,0,0,0.0,0.0,0.0,0,0,0,--.--,--.--,--.--
2021-06-24 14:47:19.488,0.4,-4.6,219,-0.9,7.4,-0.4,1.5,0.0,0.000,-0.2,0.5,488.6,0.208,0.000,91.4,00:00:38,46.5,4,229,103,--.--,58,0000:00:00,0,1,1,0.00,-1.00,0,--.--,51,--.--,--:--:--,1,0.00,14:47:19,6/24/21,--.--,--.--,--.--,--.--,--.--,--.--,--.--,--.--,--.--,--.--,--.--,--.--,0,0.000,0.000,0.000,0.000,0.000,0.000,0.000,0.000,0.000,0.000,0.000,0.000,true,true,true,true,true,true,false,false,true,true,false,false,0.01,0.01,0.01,0.00,0.00,0.00,0.43,0.14,47.3978587,8.5450304,32TMT 65668 49478,0.0,0.0,227.9,3,10,--.--,--.--,,--.--,--.--,--.--,0,0,10.3,-45.4,-0.2,-0.9,-0.9,0.2,10.4,-44.7,-0.2,-0.5,-0.1,0.2,0.2,-2.6,220.0,-1.1,11.0,0.2,--.--,--.--,--.--,0,0,0.0,0.0,0.0,0,0,0,--.--,--.--,--.--
2021-06-24 14:47:20.461,-0.3,-0.5,219,-0.2,2.3,0.1,0.5,0.0,0.000,-0.1,0.1,488.3,0.069,0.000,93.4,00:00:39,47.0,4,229,102,--.--,57,0000:00:00,0,1,1,0.00,-1.00,0,--.--,51,--.--,--:--:--,1,0.00,14:47:20,6/24/21,--.--,--.--,--.--,--.--,--.--,--.--,--.--,--.--,--.--,--.--,--.--,--.--,0,0.000,0.000,0.000,0.000,0.000,0.000,0.000,0.000,0.000,0.000,0.000,0.000,true,true,true,true,true,true,false,false,true,true,false,false,0.04,0.01,0.01,0.02,0.00,0.00,0.43,0.14,47.3978450,8.5450071,32TMT 65666 49477,0.0,0.0,229.8,3,10,--.--,--.--,,--.--,--.--,--.--,0,0,9.7,-46.0,-0.1,-0.3,-0.3,0.0,10.1,-45.1,-0.1,0.1,0.5,0.1,-0.4,0.4,220.0,-0.5,5.2,0.5,--.--,--.--,--.--,0,0,0.0,0.0,0.0,0,0,0,--.--,--.--,--.--
2021-06-24 14:47:21.456,-0.5,0.5,219,0.1,0.6,0.1,0.1,0.0,0.000,-0.0,0.0,488.2,0.055,0.000,93.4,00:00:40,47.1,4,229,102,--.--,56,0000:00:00,0,1,1,0.00,-1.00,0,--.--,51,--.--,--:--:--,1,0.00,14:47:21,6/24/21,--.--,--.--,--.--,--.--,--.--,--.--,--.--,--.--,--.--,--.--,--.--,--.--,0,0.000,0.000,0.000,0.000,0.000,0.000,0.000,0.000,0.000,0.000,0.000,0.000,true,true,true,true,true,true,false,false,true,true,false,false,0.04,0.01,0.01,0.02,0.00,0.00,0.43,0.14,47.3978386,8.5449961,32TMT 65665 49476,0.0,0.0,228.6,3,10,--.--,--.--,,--.--,--.--,--.--,0,0,9.5,-46.2,-0.1,-0.1,0.0,0.0,10.0,-45.2,-0.0,0.3,0.7,0.0,-0.6,0.8,220.0,-0.3,2.4,0.3,--.--,--.--,--.--,0,0,0.0,0.0,0.0,0,0,0,--.--,--.--,--.--
2021-06-24 14:47:22.467,-0.6,0.6,219,-0.0,0.4,-0.0,0.1,0.0,0.000,-0.0,0.0,488.2,0.064,0.000,93.4,00:00:41,47.1,4,229,102,--.--,56,0000:00:00,0,1,1,0.00,-1.00,0,--.--,51,--.--,--:--:--,1,0.00,14:47:22,6/24/21,--.--,--.--,--.--,--.--,--.--,--.--,--.--,--.--,--.--,--.--,--.--,--.--,0,0.000,0.000,0.000,0.000,0.000,0.000,0.000,0.000,0.000,0.000,0.000,0.000,true,true,true,true,true,true,false,false,true,true,false,false,0.03,0.02,0.02,0.02,0.00,0.00,0.42,0.14,47.3978366,8.5449929,32TMT 65665 49476,0.0,0.0,229.9,3,10,--.--,--.--,,--.--,--.--,--.--,0,0,9.5,-46.2,-0.1,-0.0,0.1,0.0,9.9,-45.2,-0.0,0.3,0.7,0.0,-0.6,0.9,220.0,-0.0,1.6,0.2,--.--,--.--,--.--,0,0,0.0,0.0,0.0,0,0,0,--.--,--.--,--.--
2021-06-24 14:47:23.486,-0.6,0.6,219,-0.1,0.5,0.0,0.1,0.0,0.000,-0.0,0.0,488.2,0.079,0.000,93.4,00:00:42,47.1,4,229,102,--.--,56,0000:00:00,0,1,1,0.00,-1.00,0,--.--,51,--.--,--:--:--,1,0.00,14:47:23,6/24/21,--.--,--.--,--.--,--.--,--.--,--.--,--.--,--.--,--.--,--.--,--.--,--.--,0,0.000,0.000,0.000,0.000,0.000,0.000,0.000,0.000,0.000,0.000,0.000,0.000,true,true,true,true,true,true,false,false,true,true,false,false,0.03,0.02,0.02,0.02,0.00,0.00,0.42,0.14,47.3978363,8.5449927,32TMT 65665 49476,0.0,0.0,75.7,3,10,--.--,--.--,,--.--,--.--,--.--,0,0,9.5,-46.1,-0.1,0.0,0.1,0.0,9.9,-45.2,-0.0,0.3,0.7,0.1,-0.7,0.8,220.0,-0.3,1.2,0.2,--.--,--.--,--.--,0,0,0.0,0.0,0.0,0,0,0,--.--,--.--,--.--
2021-06-24 14:47:24.492,-0.6,0.7,219,0.4,0.2,0.1,0.1,0.0,0.000,-0.1,0.1,488.2,0.089,0.000,93.4,00:00:43,47.0,4,229,102,--.--,56,0000:00:00,0,1,1,0.00,-1.00,0,--.--,51,--.--,--:--:--,1,0.00,14:47:24,6/24/21,--.--,--.--,--.--,--.--,--.--,--.--,--.--,--.--,--.--,--.--,--.--,--.--,0,0.000,0.000,0.000,0.000,0.000,0.000,0.000,0.000,0.000,0.000,0.000,0.000,true,true,true,true,true,true,false,false,true,true,false,false,0.02,0.01,0.01,0.02,0.00,0.00,0.41,0.14,47.3978364,8.5449936,32TMT 65665 49476,0.0,0.0,66.3,3,10,--.--,--.--,,--.--,--.--,--.--,0,0,9.5,-46.0,-0.1,0.0,0.1,0.1,9.9,-45.2,-0.0,0.3,0.6,0.1,-0.6,0.8,220.0,0.1,0.8,0.1,--.--,--.--,--.--,0,0,0.0,0.0,0.0,0,0,0,--.--,--.--,--.--
2021-06-24 14:47:25.485,-0.5,0.8,219,0.2,0.4,0.1,0.1,0.0,0.000,-0.1,0.1,488.2,0.094,0.000,93.4,00:00:44,46.9,4,229,102,--.--,56,0000:00:00,0,1,1,0.00,-1.00,0,--.--,51,--.--,--:--:--,1,0.00,14:47:25,6/24/21,--.--,--.--,--.--,--.--,--.--,--.--,--.--,--.--,--.--,--.--,--.--,--.--,0,0.000,0.000,0.000,0.000,0.000,0.000,0.000,0.000,0.000,0.000,0.000,0.000,true,true,true,true,true,true,false,false,true,true,false,false,0.02,0.01,0.01,0.02,0.00,0.00,0.41,0.14,47.3978367,8.5449950,32TMT 65665 49476,0.0,0.0,79.4,3,10,--.--,--.--,,--.--,--.--,--.--,0,0,9.6,-46.0,-0.1,0.0,0.1,0.1,9.9,-45.2,-0.0,0.3,0.6,0.1,-0.5,0.8,220.0,0.2,0.5,0.1,--.--,--.--,--.--,0,0,0.0,0.0,0.0,0,0,0,--.--,--.--,--.--
2021-06-24 14:47:26.484,-0.6,0.7,219,0.1,0.3,0.1,0.1,0.0,0.000,-0.1,0.1,488.2,0.096,0.000,93.4,00:00:45,46.9,4,229,102,--.--,56,0000:00:00,0,1,1,0.00,-1.00,0,--.--,51,--.--,--:--:--,1,0.00,14:47:26,6/24/21,--.--,--.--,--.--,--.--,--.--,--.--,--.--,--.--,--.--,--.--,--.--,--.--,0,0.000,0.000,0.000,0.000,0.000,0.000,0.000,0.000,0.000,0.000,0.000,0.000,true,true,true,true,true,true,false,false,true,true,false,false,0.02,0.01,0.01,0.00,0.00,0.00,0.44,0.14,47.3978370,8.5449963,32TMT 65665 49476,0.0,0.0,67.8,3,10,--.--,--.--,,--.--,--.--,--.--,0,0,9.6,-45.9,-0.1,0.0,0.1,0.1,9.9,-45.2,-0.0,0.3,0.5,0.1,-0.5,0.7,220.0,0.2,0.1,0.1,--.--,--.--,--.--,0,0,0.0,0.0,0.0,0,0,0,--.--,--.--,--.--
2021-06-24 14:47:27.489,-0.6,0.6,219,-0.2,0.5,-0.1,0.1,0.0,0.000,-0.1,0.1,488.2,0.089,0.000,93.4,00:00:46,46.8,4,229,102,--.--,56,0000:00:00,0,1,1,0.00,-1.00,0,--.--,51,--.--,--:--:--,1,0.00,14:47:27,6/24/21,--.--,--.--,--.--,--.--,--.--,--.--,--.--,--.--,--.--,--.--,--.--,--.--,0,0.000,0.000,0.000,0.000,0.000,0.000,0.000,0.000,0.000,0.000,0.000,0.000,true,true,true,true,true,true,false,false,true,true,false,false,0.02,0.01,0.01,0.00,0.00,0.00,0.44,0.14,47.3978374,8.5449977,32TMT 65665 49476,0.0,0.0,72.6,3,10,--.--,--.--,,--.--,--.--,--.--,0,0,9.6,-45.8,-0.1,0.0,0.1,0.1,9.9,-45.2,-0.0,0.2,0.5,0.1,-0.6,0.7,220.0,0.1,0.6,0.1,--.--,--.--,--.--,0,0,0.0,0.0,0.0,0,0,0,--.--,--.--,--.--
2021-06-24 14:47:28.487,-0.5,0.5,219,0.3,-0.0,0.1,0.1,0.0,0.000,-0.1,0.1,488.2,0.081,0.000,93.4,00:00:47,46.7,4,229,102,--.--,56,0000:00:00,0,1,1,0.00,-1.00,0,--.--,51,--.--,--:--:--,1,0.00,14:47:28,6/24/21,--.--,--.--,--.--,--.--,--.--,--.--,--.--,--.--,--.--,--.--,--.--,--.--,0,0.000,0.000,0.000,0.000,0.000,0.000,0.000,0.000,0.000,0.000,0.000,0.000,true,true,true,true,true,true,false,false,true,true,false,false,0.02,0.00,0.00,0.00,0.00,0.00,0.43,0.14,47.3978375,8.5449991,32TMT 65665 49476,0.0,0.0,67.8,3,10,--.--,--.--,,--.--,--.--,--.--,0,0,9.7,-45.7,-0.1,0.0,0.1,0.1,9.9,-45.2,-0.0,0.2,0.4,0.1,-0.4,0.5,220.0,0.4,0.2,0.0,--.--,--.--,--.--,0,0,0.0,0.0,0.0,0,0,0,--.--,--.--,--.--
2021-06-24 14:47:29.472,-0.3,0.3,219,0.4,0.3,-0.1,0.1,0.0,0.000,-0.0,0.1,488.2,0.067,0.000,93.4,00:00:48,46.7,4,229,102,--.--,56,0000:00:00,0,1,1,0.00,-1.00,0,--.--,51,--.--,--:--:--,1,0.00,14:47:29,6/24/21,--.--,--.--,--.--,--.--,--.--,--.--,--.--,--.--,--.--,--.--,--.--,--.--,0,0.000,0.000,0.000,0.000,0.000,0.000,0.000,0.000,0.000,0.000,0.000,0.000,true,true,true,true,true,true,false,false,true,true,false,false,0.02,0.00,0.00,0.00,0.00,0.00,0.43,0.14,47.3978376,8.5450000,32TMT 65665 49476,0.0,0.0,85.4,3,10,--.--,--.--,,--.--,--.--,--.--,0,0,9.7,-45.7,-0.1,0.0,0.0,0.0,9.9,-45.2,-0.0,0.2,0.3,0.0,-0.3,0.4,220.0,0.2,0.2,0.1,--.--,--.--,--.--,0,0,0.0,0.0,0.0,0,0,0,--.--,--.--,--.--
2021-06-24 14:47:30.482,-0.1,0.3,219,-0.1,0.6,0.2,0.1,0.0,0.000,-0.0,0.0,488.2,0.065,0.000,93.4,00:00:49,46.6,4,229,102,--.--,56,0000:00:00,0,1,1,0.00,-1.00,0,--.--,51,--.--,--:--:--,1,0.00,14:47:30,6/24/21,--.--,--.--,--.--,--.--,--.--,--.--,--.--,--.--,--.--,--.--,--.--,--.--,0,0.000,0.000,0.000,0.000,0.000,0.000,0.000,0.000,0.000,0.000,0.000,0.000,true,true,true,true,true,true,false,false,true,true,false,false,0.02,0.00,0.00,0.01,0.00,0.00,0.42,0.14,47.3978377,8.5450012,32TMT 65666 49476,0.0,0.0,102.7,3,10,--.--,--.--,,--.--,--.--,--.--,0,0,9.7,-45.6,-0.1,0.0,0.0,0.0,9.9,-45.2,-0.0,0.2,0.3,0.0,-0.1,0.4,220.0,0.1,0.5,0.1,--.--,--.--,--.--,0,0,0.0,0.0,0.0,0,0,0,--.--,--.--,--.--
2021-06-24 14:47:31.488,-0.1,0.3,219,0.4,0.4,0.2,0.1,0.0,0.000,-0.0,0.0,488.2,0.065,0.000,93.4,00:00:50,46.6,4,229,102,--.--,56,0000:00:00,0,1,1,0.00,-1.00,0,--.--,51,--.--,--:--:--,1,0.00,14:47:31,6/24/21,--.--,--.--,--.--,--.--,--.--,--.--,--.--,--.--,--.--,--.--,--.--,--.--,0,0.000,0.000,0.000,0.000,0.000,0.000,0.000,0.000,0.000,0.000,0.000,0.000,true,true,true,true,true,true,false,false,true,true,false,false,0.02,0.00,0.00,0.01,0.00,0.00,0.42,0.14,47.3978378,8.5450020,32TMT 65666 49476,0.0,0.0,80.4,3,10,--.--,--.--,,--.--,--.--,--.--,0,0,9.7,-45.6,-0.1,0.0,0.0,0.0,9.9,-45.2,-0.0,0.2,0.3,0.0,0.0,0.3,220.0,0.5,0.1,0.1,--.--,--.--,--.--,0,0,0.0,0.0,0.0,0,0,0,--.--,--.--,--.--
2021-06-24 14:47:32.474,0.0,0.2,219,0.2,0.3,-0.1,0.1,0.0,0.000,-0.0,0.0,488.2,0.067,0.000,93.4,00:00:51,46.5,4,229,102,--.--,56,0000:00:00,0,1,1,0.00,-1.00,0,--.--,51,--.--,--:--:--,1,0.00,14:47:32,6/24/21,--.--,--.--,--.--,--.--,--.--,--.--,--.--,--.--,--.--,--.--,--.--,--.--,0,0.000,0.000,0.000,0.000,0.000,0.000,0.000,0.000,0.000,0.000,0.000,0.000,true,true,true,true,true,true,false,false,true,true,false,false,0.02,0.00,0.00,0.01,0.00,0.00,0.42,0.14,47.3978379,8.5450025,32TMT 65666 49476,0.0,0.0,78.3,3,10,--.--,--.--,,--.--,--.--,--.--,0,0,9.7,-45.5,-0.1,0.0,0.0,0.0,9.9,-45.2,-0.0,0.2,0.2,0.0,0.0,0.2,220.0,0.0,0.3,0.1,--.--,--.--,--.--,0,0,0.0,0.0,0.0,0,0,0,--.--,--.--,--.--
2021-06-24 14:47:33.472,-0.1,0.3,219,0.1,0.7,0.0,0.1,0.0,0.000,-0.0,0.0,488.2,0.065,0.000,93.4,00:00:52,46.5,4,229,102,--.--,56,0000:00:00,0,1,1,0.00,-1.00,0,--.--,51,--.--,--:--:--,1,0.00,14:47:33,6/24/21,--.--,--.--,--.--,--.--,--.--,--.--,--.--,--.--,--.--,--.--,--.--,--.--,0,0.000,0.000,0.000,0.000,0.000,0.000,0.000,0.000,0.000,0.000,0.000,0.000,true,true,true,true,true,true,false,false,true,true,false,false,0.02,0.00,0.00,0.01,0.00,0.00,0.42,0.14,47.3978380,8.5450028,32TMT 65666 49476,0.0,0.0,119.2,3,10,--.--,--.--,,--.--,--.--,--.--,0,0,9.7,-45.5,-0.1,0.0,0.0,0.0,9.9,-45.2,-0.0,0.2,0.2,0.0,-0.1,0.4,220.0,0.2,0.7,0.0,--.--,--.--,--.--,0,0,0.0,0.0,0.0,0,0,0,--.--,--.--,--.--
2021-06-24 14:47:34.469,-0.2,0.3,219,-0.1,-0.0,0.0,0.1,0.0,0.000,-0.0,0.1,488.2,0.067,0.000,93.4,00:00:53,46.5,4,229,102,--.--,56,0000:00:00,0,1,1,0.00,-1.00,0,--.--,51,--.--,--:--:--,1,0.00,14:47:34,6/24/21,--.--,--.--,--.--,--.--,--.--,--.--,--.--,--.--,--.--,--.--,--.--,--.--,0,0.000,0.000,0.000,0.000,0.000,0.000,0.000,0.000,0.000,0.000,0.000,0.000,true,true,true,true,true,true,false,false,true,true,false,false,0.01,0.00,0.00,0.00,0.00,0.00,0.41,0.14,47.3978380,8.5450030,32TMT 65666 49476,0.0,0.0,54.4,3,10,--.--,--.--,,--.--,--.--,--.--,0,0,9.7,-45.5,-0.1,0.1,0.0,0.0,9.9,-45.2,-0.0,0.2,0.2,0.0,-0.2,0.3,220.0,-0.2,0.4,0.0,--.--,--.--,--.--,0,0,0.0,0.0,0.0,0,0,0,--.--,--.--,--.--
2021-06-24 14:47:35.471,-0.3,0.4,219,0.3,0.5,0.1,0.1,0.0,0.000,-0.1,0.0,488.2,0.070,0.000,93.4,00:00:54,46.5,4,229,102,--.--,56,0000:00:00,0,1,1,0.00,-1.00,0,--.--,51,--.--,--:--:--,1,0.00,14:47:35,6/24/21,--.--,--.--,--.--,--.--,--.--,--.--,--.--,--.--,--.--,--.--,--.--,--.--,0,0.000,0.000,0.000,0.000,0.000,0.000,0.000,0.000,0.000,0.000,0.000,0.000,true,true,true,true,true,true,false,false,true,true,false,false,0.01,0.00,0.00,0.00,0.00,0.00,0.41,0.14,47.3978381,8.5450033,32TMT 65666 49476,0.0,0.0,50.5,3,10,--.--,--.--,,--.--,--.--,--.--,0,0,9.7,-45.5,-0.1,0.1,0.0,0.1,9.9,-45.2,-0.0,0.1,0.2,0.1,-0.2,0.5,220.0,0.3,0.7,0.0,--.--,--.--,--.--,0,0,0.0,0.0,0.0,0,0,0,--.--,--.--,--.--
2021-06-24 14:47:36.454,-0.2,0.4,219,-0.0,0.5,-0.0,0.1,0.0,0.000,-0.1,0.1,488.2,0.077,0.000,93.4,00:00:55,46.5,4,229,102,--.--,56,0000:00:00,0,1,1,0.00,-1.00,0,--.--,51,--.--,--:--:--,1,0.00,14:47:36,6/24/21,--.--,--.--,--.--,--.--,--.--,--.--,--.--,--.--,--.--,--.--,--.--,--.--,0,0.000,0.000,0.000,0.000,0.000,0.000,0.000,0.000,0.000,0.000,0.000,0.000,true,true,true,true,true,true,false,false,true,true,false,false,0.02,0.01,0.01,0.01,0.00,0.00,0.44,0.14,47.3978381,8.5450039,32TMT 65666 49476,0.0,0.0,113.3,3,10,--.--,--.--,,--.--,--.--,--.--,0,0,9.8,-45.4,-0.1,0.1,0.0,0.1,9.9,-45.2,-0.0,0.1,0.2,0.1,-0.2,0.5,220.0,-0.1,0.4,0.0,--.--,--.--,--.--,0,0,0.0,0.0,0.0,0,0,0,--.--,--.--,--.--
2021-06-24 14:47:37.465,-0.1,0.4,219,0.5,0.4,-0.0,0.1,0.0,0.000,-0.1,0.1,488.2,0.084,0.000,93.4,00:00:56,46.4,4,229,102,--.--,56,0000:00:00,0,1,1,0.00,-1.00,0,--.--,51,--.--,--:--:--,1,0.00,14:47:37,6/24/21,--.--,--.--,--.--,--.--,--.--,--.--,--.--,--.--,--.--,--.--,--.--,--.--,0,0.000,0.000,0.000,0.000,0.000,0.000,0.000,0.000,0.000,0.000,0.000,0.000,true,true,true,true,true,true,false,false,true,true,false,false,0.02,0.01,0.01,0.01,0.00,0.00,0.44,0.14,47.3978380,8.5450045,32TMT 65666 49476,0.0,0.0,79.4,3,10,--.--,--.--,,--.--,--.--,--.--,0,0,9.8,-45.4,-0.1,0.1,-0.0,0.1,9.9,-45.2,-0.0,0.1,0.1,0.1,0.0,0.4,220.0,0.6,0.3,0.0,--.--,--.--,--.--,0,0,0.0,0.0,0.0,0,0,0,--.--,--.--,--.--
2021-06-24 14:47:38.467,0.2,0.3,219,0.4,0.1,0.2,0.1,0.0,0.000,-0.1,0.1,488.2,0.096,0.000,93.4,00:00:57,46.4,4,229,102,--.--,56,0000:00:00,0,1,1,0.00,-1.00,0,--.--,51,--.--,--:--:--,1,0.00,14:47:38,6/24/21,--.--,--.--,--.--,--.--,--.--,--.--,--.--,--.--,--.--,--.--,--.--,--.--,0,0.000,0.000,0.000,0.000,0.000,0.000,0.000,0.000,0.000,0.000,0.000,0.000,true,true,true,true,true,true,false,false,true,true,false,false,0.02,0.01,0.01,0.01,0.00,0.00,0.43,0.14,47.3978381,8.5450052,32TMT 65666 49476,0.0,0.0,68.4,3,10,--.--,--.--,,--.--,--.--,--.--,0,0,9.8,-45.4,-0.1,0.1,-0.0,0.1,9.9,-45.2,-0.0,0.1,0.1,0.1,0.2,0.3,220.0,0.5,0.2,0.1,--.--,--.--,--.--,0,0,0.0,0.0,0.0,0,0,0,--.--,--.--,--.--
2021-06-24 14:47:39.451,0.3,0.2,219,0.0,0.3,0.1,0.0,0.0,0.000,-0.1,0.1,488.2,0.102,0.000,93.4,00:00:58,46.4,4,229,102,--.--,56,0000:00:00,0,1,1,0.00,-1.00,0,--.--,51,--.--,--:--:--,1,0.00,14:47:39,6/24/21,--.--,--.--,--.--,--.--,--.--,--.--,--.--,--.--,--.--,--.--,--.--,--.--,0,0.000,0.000,0.000,0.000,0.000,0.000,0.000,0.000,0.000,0.000,0.000,0.000,true,true,true,true,true,true,false,false,true,true,false,false,0.02,0.01,0.01,0.01,0.00,0.00,0.43,0.14,47.3978383,8.5450054,32TMT 65666 49476,0.0,0.0,70.7,3,10,--.--,--.--,,--.--,--.--,--.--,0,0,9.8,-45.3,-0.1,0.0,-0.0,0.1,9.9,-45.2,-0.0,0.1,0.1,0.1,0.3,0.3,220.0,0.2,0.2,0.0,--.--,--.--,--.--,0,0,0.0,0.0,0.0,0,0,0,--.--,--.--,--.--
2021-06-24 14:47:40.495,0.2,0.3,219,0.2,0.1,-0.0,0.0,0.0,0.000,-0.1,0.1,488.2,0.103,0.000,93.4,00:00:59,46.4,4,229,102,--.--,56,0000:00:00,0,1,1,0.00,-1.00,0,--.--,51,--.--,--:--:--,1,0.00,14:47:40,6/24/21,--.--,--.--,--.--,--.--,--.--,--.--,--.--,--.--,--.--,--.--,--.--,--.--,0,0.000,0.000,0.000,0.000,0.000,0.000,0.000,0.000,0.000,0.000,0.000,0.000,true,true,true,true,true,true,false,false,true,true,false,false,0.02,0.01,0.01,0.00,0.00,0.00,0.43,0.14,47.3978386,8.5450055,32TMT 65666 49476,0.0,0.0,294.2,3,10,--.--,--.--,,--.--,--.--,--.--,0,0,9.8,-45.3,-0.1,0.0,-0.0,0.1,9.9,-45.2,-0.0,0.1,0.1,0.1,0.2,0.3,220.0,-0.0,0.1,0.1,--.--,--.--,--.--,0,0,0.0,0.0,0.0,0,0,0,--.--,--.--,--.--
2021-06-24 14:47:41.450,0.1,0.2,219,0.1,0.4,0.1,0.0,0.0,0.000,-0.1,0.1,488.2,0.112,0.000,93.4,00:01:00,46.4,4,229,102,--.--,56,0000:00:00,0,1,1,0.00,-1.00,0,--.--,51,--.--,--:--:--,1,0.00,14:47:41,6/24/21,--.--,--.--,--.--,--.--,--.--,--.--,--.--,--.--,--.--,--.--,--.--,--.--,0,0.000,0.000,0.000,0.000,0.000,0.000,0.000,0.000,0.000,0.000,0.000,0.000,true,true,true,true,true,true,false,false,true,true,false,false,0.02,0.01,0.01,0.00,0.00,0.00,0.43,0.14,47.3978389,8.5450054,32TMT 65666 49476,0.0,0.0,33.1,3,10,--.--,--.--,,--.--,--.--,--.--,0,0,9.8,-45.3,-0.1,0.0,-0.0,0.1,9.9,-45.2,-0.0,0.1,0.1,0.1,0.1,0.3,220.0,0.1,0.1,0.0,--.--,--.--,--.--,0,0,0.0,0.0,0.0,0,0,0,--.--,--.--,--.--
2021-06-24 14:47:42.452,0.1,0.1,219,-0.4,0.4,-0.1,0.0,0.0,0.000,-0.1,0.1,488.2,0.115,0.000,93.4,00:01:01,46.4,4,229,102,--.--,56,0000:00:00,0,1,1,0.00,-1.00,0,--.--,51,--.--,--:--:--,1,0.00,14:47:42,6/24/21,--.--,--.--,--.--,--.--,--.--,--.--,--.--,--.--,--.--,--.--,--.--,--.--,0,0.000,0.000,0.000,0.000,0.000,0.000,0.000,0.000,0.000,0.000,0.000,0.000,true,true,true,true,true,true,false,false,true,true,false,false,0.03,0.00,0.00,0.01,0.00,0.00,0.42,0.14,47.3978392,8.5450053,32TMT 65666 49476,0.0,0.0,320.1,3,10,--.--,--.--,,--.--,--.--,--.--,0,0,9.8,-45.3,-0.1,0.0,-0.0,0.1,9.9,-45.2,-0.0,0.1,0.1,0.1,0.0,0.1,220.0,-0.2,0.2,0.0,--.--,--.--,--.--,0,0,0.0,0.0,0.0,0,0,0,--.--,--.--,--.--
2021-06-24 14:47:43.444,0.1,0.1,219,0.6,0.3,-0.0,0.0,0.0,0.000,-0.1,0.1,488.2,0.119,0.000,93.4,00:01:02,46.4,4,229,102,--.--,56,0000:00:00,0,1,1,0.00,-1.00,0,--.--,51,--.--,--:--:--,1,0.00,14:47:43,6/24/21,--.--,--.--,--.--,--.--,--.--,--.--,--.--,--.--,--.--,--.--,--.--,--.--,0,0.000,0.000,0.000,0.000,0.000,0.000,0.000,0.000,0.000,0.000,0.000,0.000,true,true,true,true,true,true,false,false,true,true,false,false,0.03,0.00,0.00,0.01,0.00,0.00,0.42,0.14,47.3978394,8.5450053,32TMT 65666 49476,0.0,0.0,221.1,3,10,--.--,--.--,,--.--,--.--,--.--,0,0,9.9,-45.3,-0.1,0.0,0.0,0.1,9.9,-45.2,-0.0,0.1,0.1,0.1,0.1,0.1,220.0,0.3,0.3,0.0,--.--,--.--,--.--,0,0,0.0,0.0,0.0,0,0,0,--.--,--.--,--.--
2021-06-24 14:47:44.465,0.1,0.1,219,-0.0,0.2,-0.0,0.0,0.0,0.000,-0.1,0.1,488.2,0.125,0.000,93.4,00:01:03,46.4,4,229,102,--.--,56,0000:00:00,0,1,1,0.00,-1.00,0,--.--,51,--.--,--:--:--,1,0.00,14:47:44,6/24/21,--.--,--.--,--.--,--.--,--.--,--.--,--.--,--.--,--.--,--.--,--.--,--.--,0,0.000,0.000,0.000,0.000,0.000,0.000,0.000,0.000,0.000,0.000,0.000,0.000,true,true,true,true,true,true,false,false,true,true,false,false,0.03,0.00,0.00,0.02,0.00,0.00,0.41,0.14,47.3978395,8.5450051,32TMT 65666 49476,0.0,0.0,331.9,3,10,--.--,--.--,,--.--,--.--,--.--,0,0,9.9,-45.3,-0.1,0.0,0.0,0.1,9.9,-45.2,-0.0,0.0,0.1,0.1,0.1,0.2,220.0,0.2,0.3,0.0,--.--,--.--,--.--,0,0,0.0,0.0,0.0,0,0,0,--.--,--.--,--.--
2021-06-24 14:47:45.479,0.0,0.2,219,-0.4,0.4,-0.0,0.0,0.0,0.000,-0.1,0.1,488.3,0.138,0.000,93.4,00:01:04,46.4,4,229,102,--.--,56,0000:00:00,0,1,1,0.00,-1.00,0,--.--,51,--.--,--:--:--,1,0.00,14:47:45,6/24/21,--.--,--.--,--.--,--.--,--.--,--.--,--.--,--.--,--.--,--.--,--.--,--.--,0,0.000,0.000,0.000,0.000,0.000,0.000,0.000,0.000,0.000,0.000,0.000,0.000,true,true,true,true,true,true,false,false,true,true,false,false,0.03,0.00,0.00,0.02,0.00,0.00,0.41,0.14,47.3978395,8.5450050,32TMT 65666 49476,0.0,0.0,314.7,3,10,--.--,--.--,,--.--,--.--,--.--,0,0,9.9,-45.3,-0.2,0.0,0.0,0.1,9.9,-45.2,-0.0,0.0,0.1,0.1,0.0,0.3,220.0,0.1,0.5,0.0,--.--,--.--,--.--,0,0,0.0,0.0,0.0,0,0,0,--.--,--.--,--.--
2021-06-24 14:47:46.447,0.1,0.2,219,-0.3,0.2,0.0,0.0,0.0,0.000,-0.1,0.1,488.3,0.153,0.000,93.4,00:01:05,46.4,4,229,102,--.--,56,0000:00:00,0,1,1,0.00,-1.00,0,--.--,51,--.--,--:--:--,1,0.00,14:47:46,6/24/21,--.--,--.--,--.--,--.--,--.--,--.--,--.--,--.--,--.--,--.--,--.--,--.--,0,0.000,0.000,0.000,0.000,0.000,0.000,0.000,0.000,0.000,0.000,0.000,0.000,true,true,true,true,true,true,false,false,true,true,false,false,0.03,0.00,0.00,0.00,0.00,0.00,0.43,0.14,47.3978396,8.5450050,32TMT 65666 49476,0.0,0.0,336.1,3,10,--.--,--.--,,--.--,--.--,--.--,0,0,9.9,-45.3,-0.2,0.0,0.0,0.1,9.9,-45.2,-0.0,0.0,0.1,0.1,0.1,0.3,220.0,-0.0,0.3,0.0,--.--,--.--,--.--,0,0,0.0,0.0,0.0,0,0,0,--.--,--.--,--.--
2021-06-24 14:47:47.501,0.1,0.3,219,0.3,0.6,-0.0,0.0,0.0,0.000,-0.1,0.1,488.3,0.159,0.000,93.4,00:01:06,46.4,4,229,102,--.--,56,0000:00:00,0,1,1,0.00,-1.00,0,--.--,51,--.--,--:--:--,1,0.00,14:47:47,6/24/21,--.--,--.--,--.--,--.--,--.--,--.--,--.--,--.--,--.--,--.--,--.--,--.--,0,0.000,0.000,0.000,0.000,0.000,0.000,0.000,0.000,0.000,0.000,0.000,0.000,true,true,true,true,true,true,false,false,true,true,false,false,0.03,0.00,0.00,0.00,0.00,0.00,0.43,0.14,47.3978397,8.5450051,32TMT 65666 49476,0.0,0.0,68.6,3,10,--.--,--.--,,--.--,--.--,--.--,0,0,9.9,-45.3,-0.2,0.0,0.0,0.1,9.9,-45.2,-0.0,0.0,0.1,0.1,0.1,0.3,220.0,0.3,0.4,0.0,--.--,--.--,--.--,0,0,0.0,0.0,0.0,0,0,0,--.--,--.--,--.--
2021-06-24 14:47:48.500,0.2,0.2,219,0.2,0.2,0.1,0.0,0.0,0.000,-0.1,0.1,488.3,0.162,0.000,93.4,00:01:07,46.4,4,229,102,--.--,56,0000:00:00,0,1,1,0.00,-1.00,0,--.--,51,--.--,--:--:--,1,0.00,14:47:48,6/24/21,--.--,--.--,--.--,--.--,--.--,--.--,--.--,--.--,--.--,--.--,--.--,--.--,0,0.000,0.000,0.000,0.000,0.000,0.000,0.000,0.000,0.000,0.000,0.000,0.000,true,true,true,true,true,true,false,false,true,true,false,false,0.04,0.00,0.00,0.01,0.00,0.00,0.43,0.14,47.3978398,8.5450051,32TMT 65666 49476,0.0,0.0,11.2,3,10,--.--,--.--,,--.--,--.--,--.--,0,0,9.9,-45.3,-0.2,-0.0,0.0,0.1,9.9,-45.2,-0.0,0.0,0.1,0.1,0.2,0.3,220.0,0.5,0.3,0.0,--.--,--.--,--.--,0,0,0.0,0.0,0.0,0,0,0,--.--,--.--,--.--
2021-06-24 14:47:49.493,0.2,0.3,219,0.2,0.5,0.1,0.0,0.0,0.000,-0.1,0.1,488.3,0.167,0.000,93.4,00:01:08,46.4,4,229,102,--.--,56,0000:00:00,0,1,1,0.00,-1.00,0,--.--,51,--.--,--:--:--,1,0.00,14:47:49,6/24/21,--.--,--.--,--.--,--.--,--.--,--.--,--.--,--.--,--.--,--.--,--.--,--.--,0,0.000,0.000,0.000,0.000,0.000,0.000,0.000,0.000,0.000,0.000,0.000,0.000,true,true,true,true,true,true,false,false,true,true,false,false,0.04,0.00,0.00,0.01,0.00,0.00,0.43,0.14,47.3978400,8.5450050,32TMT 65666 49476,0.0,0.0,330.1,3,10,--.--,--.--,,--.--,--.--,--.--,0,0,9.9,-45.3,-0.2,-0.0,0.0,0.1,9.9,-45.2,-0.0,0.0,0.1,0.1,0.3,0.4,220.0,0.6,0.4,0.0,--.--,--.--,--.--,0,0,0.0,0.0,0.0,0,0,0,--.--,--.--,--.--
2021-06-24 14:47:50.475,0.3,0.2,219,0.1,0.4,0.1,0.0,0.0,0.000,-0.2,0.2,488.3,0.170,0.000,93.4,00:01:09,46.4,4,229,102,--.--,56,0000:00:00,0,1,1,0.00,-1.00,0,--.--,51,--.--,--:--:--,1,0.00,14:47:50,6/24/21,--.--,--.--,--.--,--.--,--.--,--.--,--.--,--.--,--.--,--.--,--.--,--.--,0,0.000,0.000,0.000,0.000,0.000,0.000,0.000,0.000,0.000,0.000,0.000,0.000,true,true,true,true,true,true,false,false,true,true,false,false,0.03,0.01,0.01,0.01,0.00,0.00,0.42,0.14,47.3978402,8.5450049,32TMT 65666 49476,0.0,0.0,2.5,3,10,--.--,--.--,,--.--,--.--,--.--,0,0,9.9,-45.3,-0.2,-0.0,0.0,0.2,9.9,-45.2,-0.0,0.0,0.1,0.2,0.2,0.2,220.0,-0.0,0.2,-0.0,--.--,--.--,--.--,0,0,0.0,0.0,0.0,0,0,0,--.--,--.--,--.--
2021-06-24 14:47:51.481,0.3,0.2,219,0.3,0.1,-0.0,0.0,0.0,0.000,-0.2,0.2,488.3,0.169,0.000,93.4,00:01:10,46.4,4,229,102,--.--,56,0000:00:00,0,1,1,0.00,-1.00,0,--.--,51,--.--,--:--:--,1,0.00,14:47:51,6/24/21,--.--,--.--,--.--,--.--,--.--,--.--,--.--,--.--,--.--,--.--,--.--,--.--,0,0.000,0.000,0.000,0.000,0.000,0.000,0.000,0.000,0.000,0.000,0.000,0.000,true,true,true,true,true,true,false,false,true,true,false,false,0.03,0.01,0.01,0.01,0.00,0.00,0.42,0.14,47.3978404,8.5450049,32TMT 65666 49476,0.0,0.0,347.6,3,10,--.--,--.--,,--.--,--.--,--.--,0,0,9.9,-45.3,-0.2,-0.0,0.0,0.1,9.9,-45.2,-0.0,-0.0,0.1,0.1,0.2,0.2,220.0,-0.1,0.2,0.0,--.--,--.--,--.--,0,0,0.0,0.0,0.0,0,0,0,--.--,--.--,--.--
2021-06-24 14:47:52.474,0.1,0.1,219,-0.1,0.5,0.1,0.0,0.0,0.000,-0.1,0.1,488.3,0.157,0.000,93.4,00:01:11,46.4,4,229,102,--.--,56,0000:00:00,0,1,1,0.00,-1.00,0,--.--,51,--.--,--:--:--,1,0.00,14:47:52,6/24/21,--.--,--.--,--.--,--.--,--.--,--.--,--.--,--.--,--.--,--.--,--.--,--.--,0,0.000,0.000,0.000,0.000,0.000,0.000,0.000,0.000,0.000,0.000,0.000,0.000,true,true,true,true,true,true,false,false,true,true,false,false,0.03,0.01,0.01,0.00,0.00,0.00,0.42,0.14,47.3978406,8.5450047,32TMT 65666 49476,0.0,0.0,268.8,3,10,--.--,--.--,,--.--,--.--,--.--,0,0,9.9,-45.3,-0.2,-0.0,0.0,0.1,9.9,-45.2,-0.0,-0.0,0.1,0.1,0.1,0.2,220.0,-0.0,0.3,0.0,--.--,--.--,--.--,0,0,0.0,0.0,0.0,0,0,0,--.--,--.--,--.--
2021-06-24 14:47:53.444,-0.0,0.1,219,-0.2,0.6,-0.0,0.1,0.0,0.000,-0.1,0.1,488.3,0.154,0.000,93.4,00:01:12,46.4,4,229,102,--.--,56,0000:00:00,0,1,1,0.00,-1.00,0,--.--,51,--.--,--:--:--,1,0.00,14:47:53,6/24/21,--.--,--.--,--.--,--.--,--.--,--.--,--.--,--.--,--.--,--.--,--.--,--.--,0,0.000,0.000,0.000,0.000,0.000,0.000,0.000,0.000,0.000,0.000,0.000,0.000,true,true,true,true,true,true,false,false,true,true,false,false,0.03,0.01,0.01,0.00,0.00,0.00,0.42,0.14,47.3978406,8.5450046,32TMT 65666 49476,0.0,0.0,267.8,3,10,--.--,--.--,,--.--,--.--,--.--,0,0,10.0,-45.3,-0.2,-0.0,0.0,0.1,9.9,-45.2,-0.0,-0.0,0.1,0.1,-0.0,0.2,220.0,-0.2,0.3,0.0,--.--,--.--,--.--,0,0,0.0,0.0,0.0,0,0,0,--.--,--.--,--.--
2021-06-24 14:47:54.502,-0.2,0.2,219,-0.2,0.2,0.1,0.0,0.0,0.000,-0.1,0.1,488.3,0.147,0.000,93.4,00:01:13,46.4,4,229,102,--.--,56,0000:00:00,0,1,1,0.00,-1.00,0,--.--,51,--.--,--:--:--,1,0.00,14:47:54,6/24/21,--.--,--.--,--.--,--.--,--.--,--.--,--.--,--.--,--.--,--.--,--.--,--.--,0,0.000,0.000,0.000,0.000,0.000,0.000,0.000,0.000,0.000,0.000,0.000,0.000,true,true,true,true,true,true,false,false,true,true,false,false,0.03,0.01,0.01,0.00,0.00,0.00,0.41,0.14,47.3978405,8.5450046,32TMT 65666 49476,0.0,0.0,149.1,3,10,--.--,--.--,,--.--,--.--,--.--,0,0,9.9,-45.3,-0.2,-0.0,0.0,0.1,9.9,-45.2,-0.0,-0.0,0.1,0.1,-0.2,0.2,220.0,-0.0,0.3,0.0,--.--,--.--,--.--,0,0,0.0,0.0,0.0,0,0,0,--.--,--.--,--.--
2021-06-24 14:47:55.445,-0.3,0.2,219,-0.0,0.3,-0.1,0.0,0.0,0.000,-0.1,0.1,488.3,0.133,0.000,93.4,00:01:14,46.4,4,229,102,--.--,56,0000:00:00,0,1,1,0.00,-1.00,0,--.--,51,--.--,--:--:--,1,0.00,14:47:55,6/24/21,--.--,--.--,--.--,--.--,--.--,--.--,--.--,--.--,--.--,--.--,--.--,--.--,0,0.000,0.000,0.000,0.000,0.000,0.000,0.000,0.000,0.000,0.000,0.000,0.000,true,true,true,true,true,true,false,false,true,true,false,false,0.03,0.01,0.01,0.00,0.00,0.00,0.41,0.14,47.3978402,8.5450050,32TMT 65666 49476,0.0,0.0,149.8,3,10,--.--,--.--,,--.--,--.--,--.--,0,0,9.9,-45.3,-0.1,-0.0,0.0,0.1,9.9,-45.2,-0.0,-0.0,0.1,0.1,-0.3,0.2,220.0,-0.1,0.4,0.0,--.--,--.--,--.--,0,0,0.0,0.0,0.0,0,0,0,--.--,--.--,--.--
2021-06-24 14:47:56.475,-0.4,0.2,219,0.1,0.7,-0.1,0.0,0.0,0.000,-0.1,0.1,488.3,0.129,0.000,93.4,00:01:15,46.4,4,229,102,--.--,56,0000:00:00,0,1,1,0.00,-1.00,0,--.--,51,--.--,--:--:--,1,0.00,14:47:56,6/24/21,--.--,--.--,--.--,--.--,--.--,--.--,--.--,--.--,--.--,--.--,--.--,--.--,0,0.000,0.000,0.000,0.000,0.000,0.000,0.000,0.000,0.000,0.000,0.000,0.000,true,true,true,true,true,true,false,false,true,true,false,false,0.03,0.00,0.00,0.01,0.00,0.00,0.43,0.14,47.3978397,8.5450056,32TMT 65666 49476,0.0,0.0,138.0,3,10,--.--,--.--,,--.--,--.--,--.--,0,0,9.9,-45.3,-0.1,0.0,0.0,0.1,9.9,-45.2,-0.0,0.0,0.0,0.1,-0.4,0.3,220.0,0.0,0.6,0.0,--.--,--.--,--.--,0,0,0.0,0.0,0.0,0,0,0,--.--,--.--,--.--
2021-06-24 14:47:57.489,-0.3,0.4,219,0.3,0.5,0.0,0.0,0.0,0.000,-0.1,0.1,488.3,0.124,0.000,93.4,00:01:16,46.3,4,229,102,--.--,56,0000:00:00,0,1,1,0.00,-1.00,0,--.--,51,--.--,--:--:--,1,0.00,14:47:57,6/24/21,--.--,--.--,--.--,--.--,--.--,--.--,--.--,--.--,--.--,--.--,--.--,--.--,0,0.000,0.000,0.000,0.000,0.000,0.000,0.000,0.000,0.000,0.000,0.000,0.000,true,true,true,true,true,true,false,false,true,true,false,false,0.03,0.00,0.00,0.01,0.00,0.00,0.43,0.14,47.3978392,8.5450064,32TMT 65666 49476,0.0,0.0,129.4,3,10,--.--,--.--,,--.--,--.--,--.--,0,0,9.9,-45.3,-0.1,0.0,-0.0,0.1,9.9,-45.2,-0.0,0.0,0.0,0.1,-0.2,0.4,220.0,0.2,0.5,0.0,--.--,--.--,--.--,0,0,0.0,0.0,0.0,0,0,0,--.--,--.--,--.--
2021-06-24 14:47:58.485,-0.1,0.4,219,0.6,0.2,-0.1,0.1,0.0,0.000,-0.1,0.1,488.3,0.129,0.000,93.4,00:01:17,46.3,4,229,102,--.--,56,0000:00:00,0,1,1,0.00,-1.00,0,--.--,51,--.--,--:--:--,1,0.00,14:47:58,6/24/21,--.--,--.--,--.--,--.--,--.--,--.--,--.--,--.--,--.--,--.--,--.--,--.--,0,0.000,0.000,0.000,0.000,0.000,0.000,0.000,0.000,0.000,0.000,0.000,0.000,true,true,true,true,true,true,false,false,true,true,false,false,0.04,0.01,0.01,0.00,0.00,0.00,0.43,0.14,47.3978388,8.5450073,32TMT 65666 49476,0.0,0.0,120.6,3,10,--.--,--.--,,--.--,--.--,--.--,0,0,9.9,-45.2,-0.1,0.0,-0.0,0.1,9.9,-45.2,-0.0,0.1,-0.0,0.1,-0.1,0.4,220.0,0.3,-0.0,0.0,--.--,--.--,--.--,0,0,0.0,0.0,0.0,0,0,0,--.--,--.--,--.--
2021-06-24 14:47:59.468,0.0,0.3,219,0.1,0.2,-0.1,0.1,0.0,0.000,-0.1,0.1,488.3,0.129,0.000,93.4,00:01:18,46.2,4,229,102,--.--,56,0000:00:00,0,1,1,0.00,-1.00,0,--.--,51,--.--,--:--:--,1,0.00,14:47:59,6/24/21,--.--,--.--,--.--,--.--,--.--,--.--,--.--,--.--,--.--,--.--,--.--,--.--,0,0.000,0.000,0.000,0.000,0.000,0.000,0.000,0.000,0.000,0.000,0.000,0.000,true,true,true,true,true,true,false,false,true,true,false,false,0.04,0.01,0.01,0.00,0.00,0.00,0.43,0.14,47.3978386,8.5450079,32TMT 65666 49476,0.0,0.0,109.5,3,10,--.--,--.--,,--.--,--.--,--.--,0,0,9.8,-45.2,-0.1,0.1,-0.1,0.1,9.9,-45.2,-0.0,0.1,-0.0,0.1,0.0,0.4,220.0,0.2,0.1,0.0,--.--,--.--,--.--,0,0,0.0,0.0,0.0,0,0,0,--.--,--.--,--.--
2021-06-24 14:48:00.480,0.1,0.3,219,-0.1,0.3,-0.0,0.1,0.0,0.000,-0.1,0.1,488.3,0.129,0.000,93.4,00:01:19,46.2,4,229,102,--.--,56,0000:00:00,0,1,1,0.00,-1.00,0,--.--,51,--.--,--:--:--,1,0.00,14:48:00,6/24/21,--.--,--.--,--.--,--.--,--.--,--.--,--.--,--.--,--.--,--.--,--.--,--.--,0,0.000,0.000,0.000,0.000,0.000,0.000,0.000,0.000,0.000,0.000,0.000,0.000,true,true,true,true,true,true,false,false,true,true,false,false,0.04,0.01,0.01,0.00,0.00,0.00,0.43,0.14,47.3978386,8.5450079,32TMT 65666 49476,0.0,0.0,109.5,3,10,--.--,--.--,,--.--,--.--,--.--,0,0,9.8,-45.2,-0.1,0.1,-0.1,0.1,9.9,-45.2,-0.0,0.1,-0.1,0.1,0.2,0.3,220.0,-0.1,0.2,-0.0,--.--,--.--,--.--,0,0,0.0,0.0,0.0,0,0,0,--.--,--.--,--.--
2021-06-24 14:48:01.486,0.2,0.2,219,0.2,0.4,-0.0,0.1,0.0,0.000,-0.1,0.1,488.3,0.126,0.000,93.4,00:01:20,46.2,4,229,102,--.--,56,0000:00:00,0,1,1,0.00,-1.00,0,--.--,51,--.--,--:--:--,1,0.00,14:48:01,6/24/21,--.--,--.--,--.--,--.--,--.--,--.--,--.--,--.--,--.--,--.--,--.--,--.--,0,0.000,0.000,0.000,0.000,0.000,0.000,0.000,0.000,0.000,0.000,0.000,0.000,true,true,true,true,true,true,false,false,true,true,false,false,0.03,0.02,0.02,0.01,0.00,0.00,0.42,0.14,47.3978383,8.5450084,32TMT 65666 49476,0.0,0.0,128.1,3,10,--.--,--.--,,--.--,--.--,--.--,0,0,9.8,-45.1,-0.1,0.1,-0.1,0.1,9.9,-45.2,-0.0,0.1,-0.1,0.1,0.3,0.2,220.0,0.1,0.4,-0.0,--.--,--.--,--.--,0,0,0.0,0.0,0.0,0,0,0,--.--,--.--,--.--
2021-06-24 14:48:02.488,0.3,0.2,219,0.4,0.3,-0.2,0.1,0.0,0.000,-0.1,0.1,488.3,0.118,0.000,93.4,00:01:21,46.2,4,229,102,--.--,56,0000:00:00,0,1,1,0.00,-1.00,0,--.--,51,--.--,--:--:--,1,0.00,14:48:02,6/24/21,--.--,--.--,--.--,--.--,--.--,--.--,--.--,--.--,--.--,--.--,--.--,--.--,0,0.000,0.000,0.000,0.000,0.000,0.000,0.000,0.000,0.000,0.000,0.000,0.000,true,true,true,true,true,true,false,false,true,true,false,false,0.03,0.02,0.02,0.01,0.00,0.00,0.42,0.14,47.3978383,8.5450086,32TMT 65666 49476,0.0,0.0,122.7,3,10,--.--,--.--,,--.--,--.--,--.--,0,0,9.8,-45.1,-0.1,0.1,-0.1,0.1,9.9,-45.2,-0.0,0.1,-0.1,0.1,0.2,0.3,220.0,0.0,0.3,-0.0,--.--,--.--,--.--,0,0,0.0,0.0,0.0,0,0,0,--.--,--.--,--.--
